%time,field.header.seq,field.header.stamp,field.header.frame_id,field.pose.position.x,field.pose.position.y,field.pose.position.z,field.pose.orientation.x,field.pose.orientation.y,field.pose.orientation.z,field.pose.orientation.w
18416000000,1144,18416000000,world,2.0,1.05495755491e-13,4.9,1.92203673968e-13,6.92898883747e-14,4.32841471989e-12,1.0
18432000000,1145,18432000000,world,2.0,2.19934812759e-13,4.9,3.97626056724e-13,6.07677434369e-14,8.5254988061e-12,1.0
18432000000,1146,18448000000,world,2.0,2.65408361465e-13,4.9,4.889999813e-13,4.65330106737e-14,1.17182544992e-11,1.0
18464000000,1147,18464000000,world,2.0,2.71934548518e-13,4.9,5.12379546833e-13,3.16237263367e-14,1.37822483745e-11,1.0
18480000000,1148,18480000000,world,2.0,2.92999170375e-13,4.9,5.51669163858e-13,2.71428944663e-14,1.47853630448e-11,1.0
18496000000,1149,18496000000,world,2.0,3.14680000917e-13,4.9,5.84529051007e-13,2.7977738907e-14,1.46315049077e-11,1.0
18512000000,1150,18512000000,world,2.0,2.9085859584e-13,4.9,5.37902932728e-13,2.7205112898e-14,1.31512816082e-11,1.0
18512000000,1151,18528000000,world,2.0,2.39632366802e-13,4.9,4.40796244669e-13,2.22943647049e-14,1.04640188103e-11,1.0
18544000000,1152,18544000000,world,2.0,1.75971036521e-13,4.9,3.1778864483e-13,2.2513645441e-14,6.7602191444e-12,1.0
18560000000,1153,18560000000,world,2.0,1.75971036521e-13,4.9,3.1778864483e-13,2.2513645441e-14,6.7602191444e-12,1.0
18576000000,1154,18576000000,world,2.0,-7.06899014269e-14,4.9,-1.26339118446e-13,3.74901265586e-15,-2.50520239878e-12,1.0
18592000000,1155,18592000000,world,2.0,-1.67587889935e-13,4.9,-3.05750236868e-13,-4.96241071137e-15,-6.91834510602e-12,1.0
18608000000,1156,18608000000,world,2.0,-2.44265242357e-13,4.9,-4.48982466374e-13,-1.31629220262e-14,-1.06078539552e-11,1.0
18608000000,1157,18624000000,world,2.0,-2.44265242357e-13,4.9,-4.48982466374e-13,-1.31629220262e-14,-1.06078539552e-11,1.0
18640000000,1158,18640000000,world,2.0,-3.04890433379e-13,4.9,-5.60574098489e-13,-1.83967432693e-14,-1.32658698477e-11,1.0
18656000000,1159,18656000000,world,2.0,-3.30656860688e-13,4.9,-6.093389991e-13,-2.62283227568e-14,-1.4604871525e-11,1.0
18672000000,1160,18672000000,world,2.0,-2.97629637436e-13,4.9,-5.49052142319e-13,-2.5111020251e-14,-1.3236220867e-11,1.0
18688000000,1161,18688000000,world,2.0,-2.39022222981e-13,4.9,-4.41249811948e-13,-1.9065356512e-14,-1.06788025901e-11,1.0
18704000000,1162,18704000000,world,2.0,-1.60829095014e-13,4.9,-2.96701729241e-13,-1.10078067538e-14,-7.15396163794e-12,1.0
18720000000,1163,18720000000,world,2.0,-6.90803955158e-14,4.9,-1.2670590476e-13,-3.55357572123e-15,-2.95713623368e-12,1.0
18736000000,1164,18736000000,world,2.0,3.06666694201e-14,4.9,5.76804066539e-14,3.8856163227e-15,1.5385459924e-12,1.0
18752000000,1165,18752000000,world,2.0,1.4656499599e-13,4.9,2.66458327589e-13,9.81924772325e-15,5.90677498307e-12,1.0
18752000000,1166,18768000000,world,2.0,2.37343874195e-13,4.9,4.31753263382e-13,1.29962226079e-14,9.60481892682e-12,1.0
18768000000,1167,18784000000,world,2.0,2.91447553276e-13,4.9,5.32886616518e-13,1.29703510573e-14,1.22187628739e-11,1.0
18800000000,1168,18800000000,world,2.0,3.0711542886e-13,4.9,5.65713099362e-13,1.074020724e-14,1.35297870211e-11,1.0
18816000000,1169,18816000000,world,2.0,2.90426453258e-13,4.9,5.39529750955e-13,7.48078298184e-15,1.35082171559e-11,1.0
18832000000,1170,18832000000,world,2.0,2.51380332086e-13,4.9,4.70676507388e-13,4.25567314634e-15,1.22689439747e-11,1.0
18848000000,1171,18848000000,world,2.0,2.51380332086e-13,4.9,4.70676507388e-13,4.25567314634e-15,1.22689439747e-11,1.0
18864000000,1172,18864000000,world,2.0,2.01537957986e-13,4.9,3.78465808432e-13,2.36353615272e-15,1.00107368218e-11,1.0
18880000000,1173,18880000000,world,2.0,8.04823404151e-14,4.9,1.46492801682e-13,2.56243775052e-15,3.27144964118e-12,1.0
18896000000,1174,18896000000,world,2.0,-7.72760424992e-15,4.9,-1.697643905e-14,2.67295342558e-15,-7.68426150425e-13,1.0
18912000000,1175,18912000000,world,2.00000000072,9.14331972669e-13,4.89999999878,-3.98832448757e-11,3.10222477336e-08,-5.80922618379e-12,1.0
18912000000,1176,18928000000,world,2.00000000058,6.18353429884e-14,4.89999999902,-3.29927681452e-11,2.4817516294e-08,-1.10821565447e-11,1.0
18928000000,1177,18944000000,world,2.00000000046,-4.98893955574e-13,4.89999999922,-2.7290466369e-11,1.98539466701e-08,-1.52000025607e-11,1.0
18960000000,1178,18960000000,world,2.00000000037,-1.35275320277e-13,4.89999999937,-2.14368921378e-11,1.58832778585e-08,-1.47089443553e-11,1.0
18976000000,1179,18976000000,world,2.0000000003,6.71428612174e-13,4.8999999995,-1.59321109099e-11,1.27066698421e-08,-1.16622618181e-11,1.0
18992000000,1180,18992000000,world,2.00000000024,6.173572046e-13,4.8999999996,-1.26396300134e-11,1.01652228675e-08,-1.23215618313e-11,1.0
19008000000,1181,19008000000,world,2.00000000019,-3.04024019155e-13,4.89999999968,-1.14036320145e-11,8.13213630364e-09,-1.7166729274e-11,1.0
19008000000,1182,19024000000,world,2.00000000015,-9.40378498661e-13,4.89999999974,-1.02528178884e-11,6.50584657129e-09,-2.02971657373e-11,1.0
19040000000,1183,19040000000,world,2.00000000012,-3.28069886343e-13,4.89999999979,-7.54365091061e-12,5.20482541427e-09,-1.67814299325e-11,1.0
19056000000,1184,19056000000,world,2.0000000001,2.13642710641e-13,4.89999999984,-5.27748928313e-12,4.16389573386e-09,-1.11674599033e-11,1.0
19072000000,1185,19072000000,world,2.00000000008,2.3385296941e-13,4.89999999987,-4.10836278748e-12,3.33112002555e-09,-6.52231561465e-12,1.0
19088000000,1186,19088000000,world,2.00000000006,2.37363626447e-14,4.89999999989,-3.52786318063e-12,2.66484119669e-09,-3.06493638306e-12,1.0
19104000000,1187,19104000000,world,2.00000000005,-9.47611131752e-14,4.89999999992,-2.97903577783e-12,2.13180072221e-09,8.01486836792e-13,1.0
19120000000,1188,19120000000,world,2.00000000004,6.34423883351e-14,4.89999999993,-2.1334259545e-12,1.70537935492e-09,5.72768427784e-12,1.0
19120000000,1189,19136000000,world,2.00000000003,2.00004862108e-13,4.89999999995,-1.43752065716e-12,1.36425410834e-09,1.02650134814e-11,1.0
19152000000,1190,19152000000,world,2.00000000003,2.64149405461e-13,4.89999999996,-9.52779967331e-13,1.09136072218e-09,1.36456089324e-11,1.0
19168000000,1191,19168000000,world,2.00000000003,2.64149405461e-13,4.89999999996,-9.52779967331e-13,1.09136072218e-09,1.36456089324e-11,1.0
19184000000,1192,19184000000,world,2.00000000002,3.98879881966e-13,4.89999999997,-4.381552268e-13,8.7306676356e-10,1.58260303762e-11,1.0
19200000000,1193,19200000000,world,2.00000000001,1.68295695176e-13,4.89999999998,-3.95289520785e-13,5.58838995877e-10,1.33967313613e-11,1.0
19216000000,1194,19216000000,world,2.00000000001,2.7137391263e-13,4.89999999998,-1.0340232746e-13,4.47120909259e-10,1.0628348024e-11,1.0
19232000000,1195,19232000000,world,2.00000000001,3.8656369522e-13,4.89999999999,1.6862204863e-13,3.5771101622e-10,6.44805541068e-12,1.0
19248000000,1196,19248000000,world,2.00000000001,1.8058243601e-13,4.89999999999,-9.7696996233e-14,2.86161799456e-10,1.81913241826e-13,1.0
19264000000,1197,19264000000,world,2.00000000001,-1.56522288016e-13,4.89999999999,-5.94844793183e-13,2.28910516353e-10,-7.2052129797e-12,1.0
19280000000,1198,19280000000,world,2.0,-4.62028445733e-13,4.89999999999,-1.05381431362e-12,1.83100474198e-10,-1.39516980042e-11,1.0
19296000000,1199,19296000000,world,2.0,-5.84341591226e-13,4.89999999999,-1.22439149567e-12,1.46418563385e-10,-1.83997044311e-11,1.0
19312000000,1200,19312000000,world,2.0,-4.53513672525e-13,4.9,-9.92101726967e-13,1.17063976492e-10,-2.00992861887e-11,1.0
19312000000,1201,19328000000,world,2.0,-4.53513672525e-13,4.9,-9.92101726967e-13,1.17063976492e-10,-2.00992861887e-11,1.0
19344000000,1202,19344000000,world,2.0,-3.99574787814e-13,4.9,-8.5288152446e-13,7.49253450433e-11,-2.02710594479e-11,1.0
19360000000,1203,19360000000,world,2.0,-5.06258570245e-13,4.9,-9.90271982154e-13,5.99586930832e-11,-1.88404166119e-11,1.0
19376000000,1204,19376000000,world,2.0,-4.28227901882e-13,4.9,-8.28262618002e-13,4.79697718346e-11,-1.50418956674e-11,1.0
19392000000,1205,19392000000,world,2.0,-2.6341863497e-13,4.9,-5.22234672421e-13,3.84152554393e-11,-9.3993434353e-12,1.0
19392000000,1206,19408000000,world,2.0,-7.18678786627e-14,4.9,-1.67078181701e-13,3.07397950134e-11,-2.19844751101e-12,1.0
19424000000,1207,19424000000,world,2.0,1.29143472838e-13,4.9,2.04515559237e-13,2.4598769971e-11,5.58434336562e-12,1.0
19440000000,1208,19440000000,world,2.0,3.20891584454e-13,4.9,5.57070469001e-13,1.96814953231e-11,1.29058048728e-11,1.0
19456000000,1209,19456000000,world,2.0,3.94477306272e-13,4.9,7.14483790575e-13,1.57322224645e-11,1.87516301458e-11,1.0
19472000000,1210,19472000000,world,2.0,4.38848093704e-13,4.9,8.14893143956e-13,1.25663750454e-11,2.29750871321e-11,1.0
19488000000,1211,19488000000,world,2.0,5.28503590416e-13,4.9,9.74241074061e-13,1.00479828079e-11,2.54925253012e-11,1.0
19504000000,1212,19504000000,world,2.0,5.55981145614e-13,4.9,1.02112668637e-12,8.05265234414e-12,2.56996175061e-11,1.0
19520000000,1213,19520000000,world,2.0,4.84515097663e-13,4.9,8.97530323576e-13,6.45982605834e-12,2.34751247862e-11,1.0
19520000000,1214,19536000000,world,2.0,4.25399013315e-13,4.9,7.80866351588e-13,5.17494847287e-12,1.9386069029e-11,1.0
19552000000,1215,19552000000,world,2.0,3.80606718495e-13,4.9,6.7500631415e-13,4.15609043793e-12,1.35425368566e-11,1.0
19568000000,1216,19568000000,world,2.0,1.76935920007e-13,4.9,3.09727292398e-13,3.31788477441e-12,5.94667578812e-12,1.0
19584000000,1217,19584000000,world,2.0,-7.04559925909e-14,4.9,-1.29326334269e-13,2.64026391119e-12,-2.48240524564e-12,1.0
19600000000,1218,19600000000,world,2.0,-2.79999280613e-13,4.9,-5.07126179906e-13,2.09409510494e-12,-1.05416767268e-11,1.0
19616000000,1219,19616000000,world,2.0,-4.16695274089e-13,4.9,-7.63203522232e-13,1.65406851879e-12,-1.73210132226e-11,1.0
19632000000,1220,19632000000,world,2.0,-4.89496405149e-13,4.9,-9.08535320287e-13,1.30549141304e-12,-2.23562060522e-11,1.0
19648000000,1221,19648000000,world,2.0,-5.55026783684e-13,4.9,-1.03021841355e-12,1.03301464559e-12,-2.54517620619e-11,1.0
19664000000,1222,19664000000,world,2.0,-5.86744015845e-13,4.9,-1.08493168083e-12,8.15135149087e-13,-2.63131725469e-11,1.0
19664000000,1223,19680000000,world,2.0,-5.69069162173e-13,4.9,-1.0473071217e-12,6.41233721628e-13,-2.47772955876e-11,1.0
19696000000,1224,19696000000,world,2.0,-4.96878791387e-13,4.9,-9.09797822585e-13,5.10794433181e-13,-2.09165722924e-11,1.0
19696000000,1225,19712000000,world,2.0,-4.96878791387e-13,4.9,-9.09797822585e-13,5.10794433181e-13,-2.09165722924e-11,1.0
19712000000,1226,19728000000,world,2.0,-1.91444063449e-13,4.9,-3.46428390921e-13,3.48313211364e-13,-7.38621116608e-12,1.0
19744000000,1227,19744000000,world,2.0,1.62785446208e-14,4.9,3.24925381681e-14,2.87580041176e-13,1.16876086632e-12,1.0
19744000000,1228,19760000000,world,2.0,2.41812714215e-13,4.9,4.39050755595e-13,2.42550762455e-13,9.70164217761e-12,1.0
19760000000,1229,19776000000,world,2.0,4.26940332112e-13,4.9,7.75553960855e-13,2.04663097323e-13,1.71418640975e-11,1.0
19792000000,1230,19792000000,world,2.0,5.45999814192e-13,4.9,9.96489748577e-13,1.69846248409e-13,2.26334217106e-11,1.0
19792000000,1231,19808000000,world,2.0,5.91332707041e-13,4.9,1.08670270017e-12,1.37465302849e-13,2.56745509101e-11,1.0
19824000000,1232,19824000000,world,2.0,5.71323180296e-13,4.9,1.0584345603e-12,1.08408328054e-13,2.61329688709e-11,1.0
19840000000,1233,19840000000,world,2.0,5.03561347418e-13,4.9,9.40202112026e-13,8.37202165145e-14,2.41752327202e-11,1.0
19856000000,1234,19856000000,world,2.0,4.06818136438e-13,4.9,7.63577232102e-13,6.43544512167e-14,2.01576188735e-11,1.0
19872000000,1235,19872000000,world,2.0,3.004306124e-13,4.9,5.61515234807e-13,5.09554329934e-14,1.45148609648e-11,1.0
19872000000,1236,19888000000,world,2.0,1.76148099631e-13,4.9,3.23685549967e-13,4.2416077369e-14,7.64500851692e-12,1.0
19888000000,1237,19904000000,world,2.0,1.76148099631e-13,4.9,3.23685549967e-13,4.2416077369e-14,7.64500851692e-12,1.0
19920000000,1238,19920000000,world,2.0,1.84096194613e-14,4.9,2.87379047174e-14,3.59735665508e-14,7.57713424129e-15,1.0
19936000000,1239,19936000000,world,2.0,-2.07715208725e-13,4.9,-3.73388212371e-13,1.6101801869e-14,-7.70026152813e-12,1.0
19952000000,1240,19952000000,world,2.0,-4.86098826576e-13,4.9,-8.82057100303e-13,-1.07804831975e-14,-1.93200601216e-11,1.0
19952000000,1241,19968000000,world,2.0,-5.18456969905e-13,4.9,-9.49445464798e-13,-2.39077420047e-14,-2.19644737969e-11,1.0
19984000000,1242,19984000000,world,2.0,-5.18456969905e-13,4.9,-9.49445464798e-13,-2.39077420047e-14,-2.19644737969e-11,1.0
19984000000,1243,20000000000,world,2.0,-4.32379426817e-13,4.9,-8.07735087946e-13,-4.15569902357e-14,-2.08105014413e-11,1.0
20016000000,1244,20016000000,world,2.0,-3.84183928332e-13,4.9,-7.12730678297e-13,-3.72109260444e-14,-1.77130873224e-11,1.0
20016000000,1245,20032000000,world,2.0,-3.06602556399e-13,4.9,-5.62429677387e-13,-2.74005734076e-14,-1.3138501339e-11,1.0
20048000000,1246,20048000000,world,2.0,-1.73642577987e-13,4.9,-3.17632090877e-13,-1.49839016452e-14,-7.30027832201e-12,1.0
20064000000,1247,20064000000,world,2.0,-3.23290173231e-14,4.9,-5.54779065957e-14,5.12910589286e-16,-7.85950746296e-13,1.0
20080000000,1248,20080000000,world,2.0,1.24421921533e-13,4.9,2.31743217366e-13,2.11275351459e-14,5.88107403078e-12,1.0
20096000000,1249,20096000000,world,2.0,2.93632147001e-13,4.9,5.35813132318e-13,2.75009574976e-14,1.21420624745e-11,1.0
20112000000,1250,20112000000,world,2.0,4.13044659952e-13,4.9,7.5431595756e-13,3.05863499399e-14,1.71740174557e-11,1.0
20128000000,1251,20128000000,world,2.0,4.6859320206e-13,4.9,8.61657759622e-13,2.66918398192e-14,2.04068043561e-11,1.0
20144000000,1252,20144000000,world,2.0,4.6859320206e-13,4.9,8.61657759622e-13,2.66918398192e-14,2.04068043561e-11,1.0
20160000000,1253,20160000000,world,2.0,4.2400156597e-13,4.9,7.9558833832e-13,9.28633802403e-15,2.09579402121e-11,1.0
20176000000,1254,20176000000,world,2.0,4.2400156597e-13,4.9,7.9558833832e-13,9.28633802403e-15,2.09579402121e-11,1.0
20192000000,1255,20192000000,world,2.0,3.15561600323e-13,4.9,5.8635603524e-13,4.04090696722e-15,1.46964711454e-11,1.0
20208000000,1256,20208000000,world,2.0,2.0011797569e-13,4.9,3.72515817826e-13,2.7917099595e-15,9.424577465e-12,1.0
20224000000,1257,20224000000,world,2.0,7.82278446479e-14,4.9,1.43467623803e-13,1.49401182474e-15,3.34699027681e-12,1.0
20240000000,1258,20240000000,world,2.0,-4.98984270753e-14,4.9,-9.73892553954e-14,1.85343278658e-15,-3.05574976625e-12,1.0
20256000000,1259,20256000000,world,2.0,-2.44974686077e-13,4.9,-4.41690872373e-13,-2.45388357869e-16,-9.29579776346e-12,1.0
20272000000,1260,20272000000,world,2.0,-3.75404802478e-13,4.9,-6.77285420081e-13,-1.00319695441e-14,-1.43117289486e-11,1.0
20288000000,1261,20288000000,world,2.0,-4.34859654474e-13,4.9,-7.90386533839e-13,-2.37937788017e-14,-1.74916465484e-11,1.0
20288000000,1262,20304000000,world,2.0,-4.34859654474e-13,4.9,-7.90386533839e-13,-2.37937788017e-14,-1.74916465484e-11,1.0
20320000000,1263,20320000000,world,2.0,-3.78074163915e-13,4.9,-7.06214122815e-13,-3.86791411989e-14,-1.81875660459e-11,1.0
20320000000,1264,20336000000,world,2.0,-3.33405548948e-13,4.9,-6.24327354606e-13,-3.71087166832e-14,-1.62815372165e-11,1.0
20352000000,1265,20352000000,world,2.0,-2.84901897795e-13,4.9,-5.28560521095e-13,-3.55455593449e-14,-1.3139593894e-11,1.0
20368000000,1266,20368000000,world,2.0,-2.13676388504e-13,4.9,-3.90371074173e-13,-3.09547725085e-14,-8.90780428698e-12,1.0
20384000000,1267,20384000000,world,2.0,-1.21636426039e-13,4.9,-2.14499448894e-13,-1.72207000833e-14,-3.86230245815e-12,1.0
20400000000,1268,20400000000,world,2.0,1.17050575341e-14,4.9,2.92371864444e-14,4.61787914025e-15,1.71665720646e-12,1.0
20416000000,1269,20416000000,world,2.0,1.17050575341e-14,4.9,2.92371864444e-14,4.61787914025e-15,1.71665720646e-12,1.0
20432000000,1270,20432000000,world,2.0,3.31156637188e-13,4.9,5.93032919517e-13,2.76279336545e-14,1.19312241874e-11,1.0
20448000000,1271,20448000000,world,2.0,3.74482231264e-13,4.9,6.79815417373e-13,2.15401423734e-14,1.49318330511e-11,1.0
20464000000,1272,20464000000,world,2.0,3.58877686692e-13,4.9,6.63780120649e-13,1.08198666671e-14,1.62340305376e-11,1.0
20480000000,1273,20480000000,world,2.0,3.11506400099e-13,4.9,5.88628091168e-13,2.68387273475e-15,1.60425325793e-11,1.0
20496000000,1274,20496000000,world,2.0,2.79504149914e-13,4.9,5.29822251351e-13,-1.93983938387e-15,1.46552397779e-11,1.0
20496000000,1275,20512000000,world,2.00000000072,1.54335822775e-12,4.89999999878,-3.87947255377e-11,3.10227286373e-08,1.09629944503e-11,1.0
20512000000,1276,20528000000,world,2.00000000058,7.55844138857e-13,4.89999999902,-3.18092969872e-11,2.48178986781e-08,4.66909848765e-12,1.0
20544000000,1277,20544000000,world,2.00000000046,2.0754291999e-13,4.89999999922,-2.61114487479e-11,1.98542559117e-08,-3.18974769836e-12,1.0
20560000000,1278,20560000000,world,2.00000000037,2.10080341208e-13,4.89999999937,-2.08670092787e-11,1.58835193742e-08,-9.84704889076e-12,1.0
20576000000,1279,20576000000,world,2.0000000003,5.77654812174e-14,4.8999999995,-1.69175706047e-11,1.27068117123e-08,-1.59913881198e-11,1.0
20592000000,1280,20592000000,world,2.00000000024,-1.3484167956e-13,4.8999999996,-1.38715401747e-11,1.01653070146e-08,-2.13895877117e-11,1.0
20608000000,1281,20608000000,world,2.00000000019,-3.5556103678e-13,4.89999999968,-1.15402843244e-11,8.13215106325e-09,-2.59559664445e-11,1.0
20608000000,1282,20624000000,world,2.00000000015,-7.13167726358e-13,4.89999999974,-9.95743300252e-12,6.50575444501e-09,-2.95539979249e-11,1.0
20624000000,1283,20640000000,world,2.00000000012,-7.14311473395e-13,4.89999999979,-8.22714398177e-12,5.20470329213e-09,-2.94085205271e-11,1.0
20656000000,1284,20656000000,world,2.0000000001,-2.3578469863e-13,4.89999999984,-6.06627203004e-12,4.16380473304e-09,-2.48425807592e-11,1.0
20672000000,1285,20672000000,world,2.00000000008,-1.06990713633e-14,4.89999999987,-4.57253536929e-12,3.33102256997e-09,-1.94349917197e-11,1.0
20688000000,1286,20688000000,world,2.00000000006,-2.0091613816e-13,4.89999999989,-3.9533715128e-12,2.6648674214e-09,-1.47898460677e-11,1.0
20704000000,1287,20704000000,world,2.00000000005,-1.34295870055e-13,4.89999999992,-3.10258371944e-12,2.1318941886e-09,-8.88059281635e-12,1.0
20704000000,1288,20720000000,world,2.00000000004,-2.32248836754e-14,4.89999999993,-2.31752615772e-12,1.70550782114e-09,-1.92019683065e-12,1.0
20736000000,1289,20736000000,world,2.00000000003,1.09603436035e-13,4.89999999995,-1.60958157536e-12,1.36437585334e-09,5.41362049204e-12,1.0
20736000000,1290,20752000000,world,2.00000000003,2.41189673139e-13,4.89999999996,-9.96407352288e-13,1.09144866447e-09,1.24234724824e-11,1.0
20768000000,1291,20768000000,world,2.00000000002,4.25323787819e-13,4.89999999997,-3.79813727168e-13,8.73118916288e-10,1.84970560274e-11,1.0
20784000000,1292,20784000000,world,2.00000000002,5.45358040682e-13,4.89999999997,6.54943013697e-14,6.9849234245e-10,2.25093559128e-11,1.0
20800000000,1293,20800000000,world,2.00000000001,4.81858643576e-13,4.89999999998,1.60346354171e-13,5.58814521469e-10,2.37722253353e-11,1.0
20816000000,1294,20816000000,world,2.00000000001,3.85844275575e-13,4.89999999998,1.5439516996e-13,4.47069752253e-10,2.30183821219e-11,1.0
20832000000,1295,20832000000,world,2.00000000001,4.14256698229e-13,4.89999999999,3.05030063668e-13,3.57674749862e-10,2.10350582892e-11,1.0
20848000000,1296,20848000000,world,2.00000000001,5.7707042384e-13,4.89999999999,6.30816257785e-13,2.86188535127e-10,1.73598755199e-11,1.0
20864000000,1297,20864000000,world,2.00000000001,5.7707042384e-13,4.89999999999,6.30816257785e-13,2.86188535127e-10,1.73598755199e-11,1.0
20880000000,1298,20880000000,world,2.0,6.66884642e-14,4.89999999999,-1.25798407586e-13,1.83133298737e-10,2.15295764525e-12,1.0
20896000000,1299,20896000000,world,2.0,-2.4430882608e-13,4.89999999999,-6.19673913984e-13,1.46477028879e-10,-6.80934864139e-12,1.0
20912000000,1300,20912000000,world,2.0,-3.95809066786e-13,4.9,-8.6607215366e-13,1.1714999029e-10,-1.44709038818e-11,1.0
20928000000,1301,20928000000,world,2.0,-4.3295070891e-13,4.9,-9.3071982068e-13,9.36865156677e-11,-2.03984211793e-11,1.0
20944000000,1302,20944000000,world,2.0,-5.05901544331e-13,4.9,-1.04820398895e-12,7.49230745577e-11,-2.48727206894e-11,1.0
20960000000,1303,20960000000,world,2.0,-5.88868918485e-13,4.9,-1.17512037965e-12,5.99302979186e-11,-2.75957868936e-11,1.0
20976000000,1304,20976000000,world,2.0,-6.20509665766e-13,4.9,-1.21155450623e-12,4.79487151037e-11,-2.8069067461e-11,1.0
20992000000,1305,20992000000,world,2.0,-6.56707924634e-13,4.9,-1.2427007658e-12,3.83634492963e-11,-2.6101413476e-11,1.0
21008000000,1306,21008000000,world,2.0,-5.44424660424e-13,4.9,-1.02596995123e-12,3.07095360978e-11,-2.12051744693e-11,1.0
21024000000,1307,21024000000,world,2.0,-3.47109160312e-13,4.9,-6.61122901907e-13,2.45724288544e-11,-1.35757056056e-11,1.0
21040000000,1308,21040000000,world,2.0,-7.78361456092e-14,4.9,-1.74392386817e-13,1.96587510164e-11,-4.18966818895e-12,1.0
21056000000,1309,21056000000,world,2.0,1.79771993475e-13,4.9,2.94752226231e-13,1.57303274126e-11,5.49786688369e-12,1.0
21072000000,1310,21072000000,world,2.0,3.10405568903e-13,4.9,5.58242332907e-13,1.25891430486e-11,1.41756414063e-11,1.0
21088000000,1311,21088000000,world,2.0,4.35773296952e-13,4.9,8.04409223919e-13,1.00706169807e-11,2.15593147312e-11,1.0
21104000000,1312,21104000000,world,2.0,5.55928033978e-13,4.9,1.03069150244e-12,8.05855142821e-12,2.72085387942e-11,1.0
21120000000,1313,21120000000,world,2.0,6.35831467141e-13,4.9,1.1789801643e-12,6.45819977131e-12,3.05656463414e-11,1.0
21136000000,1314,21136000000,world,2.0,7.07282590865e-13,4.9,1.29700471924e-12,5.1803225908e-12,3.13173107658e-11,1.0
21152000000,1315,21152000000,world,2.0,7.02738197815e-13,4.9,1.27654838995e-12,4.15608163569e-12,2.9010482202e-11,1.0
21168000000,1316,21168000000,world,2.0,6.00040367846e-13,4.9,1.08236849172e-12,3.3305716044e-12,2.35308285114e-11,1.0
21184000000,1317,21184000000,world,2.0,3.99452428375e-13,4.9,7.17416848502e-13,2.66253797039e-12,1.52674828428e-11,1.0
21200000000,1318,21200000000,world,2.0,1.28237564525e-13,4.9,2.30043103668e-13,2.11936677114e-12,5.12179477011e-12,1.0
21216000000,1319,21216000000,world,2.0,-1.65295922324e-13,4.9,-2.96078019358e-13,1.67874026944e-12,-5.61496841551e-12,1.0
21216000000,1320,21232000000,world,2.0,-3.83810651493e-13,4.9,-7.00079021535e-13,1.325334503e-12,-1.55444737305e-11,1.0
21248000000,1321,21248000000,world,2.0,-5.49173876642e-13,4.9,-1.0104665608e-12,1.04025007381e-12,-2.37905255423e-11,1.0
21248000000,1322,21264000000,world,2.0,-6.87177633187e-13,4.9,-1.26325918637e-12,8.14618255825e-13,-2.96934830352e-11,1.0
21264000000,1323,21280000000,world,2.0,-7.52300767631e-13,4.9,-1.38360072956e-12,6.33015970133e-13,-3.26581751967e-11,1.0
21296000000,1324,21296000000,world,2.0,-7.52300767631e-13,4.9,-1.38360072956e-12,6.33015970133e-13,-3.26581751967e-11,1.0
21312000000,1325,21312000000,world,2.0,-6.61258451582e-13,4.9,-1.21912361655e-12,3.83285909921e-13,-2.92043048399e-11,1.0
21328000000,1326,21328000000,world,2.0,-5.21668768725e-13,4.9,-9.63334450888e-13,3.09049936867e-13,-2.32833510488e-11,1.0
21344000000,1327,21344000000,world,2.0,-3.39571612089e-13,4.9,-6.27669431381e-13,2.55920175087e-13,-1.52395006977e-11,1.0
21360000000,1328,21360000000,world,2.0,-1.30816800622e-13,4.9,-2.41449185767e-13,2.15977286118e-13,-5.79121509516e-12,1.0
21376000000,1329,21376000000,world,2.0,8.96920675766e-14,4.9,1.6655528415e-13,1.88394200048e-13,4.1980407956e-12,1.0
21392000000,1330,21392000000,world,2.0,3.44144956288e-13,4.9,6.25019466314e-13,1.65564915137e-13,1.37957600997e-11,1.0
21408000000,1331,21408000000,world,2.0,3.44144956288e-13,4.9,6.25019466314e-13,1.65564915137e-13,1.37957600997e-11,1.0
21424000000,1332,21424000000,world,2.0,6.52993103361e-13,4.9,1.19370817512e-12,1.20365045934e-13,2.73560162976e-11,1.0
21440000000,1333,21440000000,world,2.0,6.52993103361e-13,4.9,1.19370817512e-12,1.20365045934e-13,2.73560162976e-11,1.0
21456000000,1334,21456000000,world,2.0,6.80023487519e-13,4.9,1.25266063419e-12,9.6598426058e-14,2.99771123392e-11,1.0
21472000000,1335,21472000000,world,2.0,6.36065029328e-13,4.9,1.18197222715e-12,7.44157280459e-14,2.96475505761e-11,1.0
21488000000,1336,21488000000,world,2.0,4.30490737982e-13,4.9,8.08877884928e-13,4.20320584287e-14,2.14604863213e-11,1.0
21504000000,1337,21504000000,world,2.0,3.10703477012e-13,4.9,5.77824182591e-13,3.3934767158e-14,1.45536263084e-11,1.0
21520000000,1338,21520000000,world,2.0,1.59912302626e-13,4.9,2.90092051877e-13,2.90585257383e-14,6.34879683832e-12,1.0
21536000000,1339,21536000000,world,2.0,1.59912302626e-13,4.9,2.90092051877e-13,2.90585257383e-14,6.34879683832e-12,1.0
21552000000,1340,21552000000,world,2.0,-3.60278376613e-14,4.9,-7.27641311621e-14,2.46665347354e-14,-2.585754208e-12,1.0
21568000000,1341,21568000000,world,2.0,-4.90240436299e-13,4.9,-8.84707536693e-13,-1.03250315638e-14,-1.8724908166e-11,1.0
21584000000,1342,21584000000,world,2.0,-5.92601191529e-13,4.9,-1.07670007865e-12,-2.14020216843e-14,-2.37732086636e-11,1.0
21600000000,1343,21600000000,world,2.0,-5.92601191529e-13,4.9,-1.07670007865e-12,-2.14020216843e-14,-2.37732086636e-11,1.0
21616000000,1344,21616000000,world,2.0,-5.57130676755e-13,4.9,-1.03418119096e-12,-4.78400641033e-14,-2.57830376441e-11,1.0
21632000000,1345,21632000000,world,2.0,-4.7740504526e-13,4.9,-8.94188959144e-13,-5.18197985519e-14,-2.3345725199e-11,1.0
21648000000,1346,21648000000,world,2.0,-4.27245341155e-13,4.9,-7.89647058956e-13,-4.60135324001e-14,-1.92350259672e-11,1.0
21664000000,1347,21664000000,world,2.0,-4.27245341155e-13,4.9,-7.89647058956e-13,-4.60135324001e-14,-1.92350259672e-11,1.0
21680000000,1348,21680000000,world,2.0,-1.53157142804e-13,4.9,-2.79115633533e-13,-1.7759771674e-14,-6.27675505143e-12,1.0
21696000000,1349,21696000000,world,2.0,2.67746561484e-14,4.9,5.11006164927e-14,6.37760692488e-15,1.45761129132e-12,1.0
21712000000,1350,21712000000,world,2.0,2.64692901436e-13,4.9,4.71136223708e-13,1.920727409e-14,9.08652400219e-12,1.0
21728000000,1351,21728000000,world,2.0,4.25826671426e-13,4.9,7.63396199143e-13,2.70459310464e-14,1.54719149463e-11,1.0
21744000000,1352,21744000000,world,2.0,4.25826671426e-13,4.9,7.63396199143e-13,2.70459310464e-14,1.54719149463e-11,1.0
21760000000,1353,21760000000,world,2.0,5.01223607192e-13,4.9,9.21841357743e-13,2.22507979339e-14,2.18555433969e-11,1.0
21776000000,1354,21776000000,world,2.0,5.01223607192e-13,4.9,9.21841357743e-13,2.22507979339e-14,2.18555433969e-11,1.0
21792000000,1355,21792000000,world,2.0,3.70412397937e-13,4.9,7.0388053353e-13,-5.89731714785e-15,1.96932945999e-11,1.0
21808000000,1356,21808000000,world,2.0,3.45516334361e-13,4.9,6.43582319667e-13,-6.76130873265e-15,1.63363359051e-11,1.0
21824000000,1357,21824000000,world,2.0,2.66422652223e-13,4.9,4.88997423579e-13,-8.90114082747e-16,1.1459920064e-11,1.0
21840000000,1358,21840000000,world,2.0,1.10589782113e-13,4.9,2.06776791027e-13,2.21335814931e-15,5.35072912848e-12,1.0
21856000000,1359,21856000000,world,2.0,-2.58318892008e-14,4.9,-4.76297117658e-14,7.44466395759e-16,-1.14642690495e-12,1.0
21872000000,1360,21872000000,world,2.0,-1.28935199955e-13,4.9,-2.49190131688e-13,8.01354396796e-15,-7.51076077503e-12,1.0
21888000000,1361,21888000000,world,2.0,-2.96164163186e-13,4.9,-5.47820563759e-13,-4.1499056491e-15,-1.34044680974e-11,1.0
21904000000,1362,21904000000,world,2.0,-2.96164163186e-13,4.9,-5.47820563759e-13,-4.1499056491e-15,-1.34044680974e-11,1.0
21920000000,1363,21920000000,world,2.0,-4.27452476474e-13,4.9,-7.82316112348e-13,-1.84097781345e-14,-1.80386085394e-11,1.0
21936000000,1364,21936000000,world,2.0,-4.74245768317e-13,4.9,-8.7779336214e-13,-3.78589161596e-14,-2.1552839762e-11,1.0
21952000000,1365,21952000000,world,2.0,-4.74245768317e-13,4.9,-8.7779336214e-13,-3.78589161596e-14,-2.1552839762e-11,1.0
21968000000,1366,21968000000,world,2.00000000058,3.26187801018e-13,4.89999999902,-3.26181329988e-11,2.48177736466e-08,-1.69897184224e-11,1.0
21984000000,1367,21984000000,world,2.00000000046,2.80266510073e-13,4.89999999922,-2.60620279585e-11,1.98541601287e-08,-1.32257905198e-11,1.0
22000000000,1368,22000000000,world,2.00000000037,6.3548934514e-14,4.89999999937,-2.10990335106e-11,1.58834762266e-08,-1.03763136456e-11,1.0
22016000000,1369,22016000000,world,2.0000000003,3.81973994567e-13,4.8999999995,-1.63445358336e-11,1.27068526951e-08,-5.49756993516e-12,1.0
22032000000,1370,22032000000,world,2.00000000024,5.62916509896e-13,4.8999999996,-1.26531188544e-11,1.01653425261e-08,-1.12309707324e-12,1.0
22048000000,1371,22048000000,world,2.00000000019,6.54928198705e-14,4.89999999968,-1.07180524112e-11,8.13213066053e-09,-1.09101914651e-13,1.0
22064000000,1372,22064000000,world,2.00000000015,-1.66477790668e-13,4.89999999974,-8.90967550809e-12,6.50579591986e-09,9.03458338758e-13,1.0
22080000000,1373,22080000000,world,2.00000000012,5.38197062669e-13,4.89999999979,-6.05728990183e-12,5.20484170836e-09,4.2708599281e-12,1.0
22096000000,1374,22096000000,world,2.0000000001,5.77945685656e-13,4.89999999984,-4.60759662714e-12,4.16388400794e-09,4.70302510693e-12,1.0
22112000000,1375,22112000000,world,2.00000000008,1.19258311495e-13,4.89999999987,-4.23351285434e-12,3.33096935299e-09,1.88717321647e-12,1.0
22128000000,1376,22128000000,world,2.00000000006,2.42100497603e-14,4.89999999989,-3.5124282479e-12,2.6647600802e-09,-7.6114478859e-13,1.0
22144000000,1377,22144000000,world,2.00000000005,2.33569452679e-13,4.89999999992,-2.49059871126e-12,2.13189941672e-09,-2.94925180553e-12,1.0
22160000000,1378,22160000000,world,2.00000000004,-1.84951375479e-13,4.89999999993,-2.60282102077e-12,1.70554444155e-09,-7.07114607288e-12,1.0
22176000000,1379,22176000000,world,2.00000000004,-1.84951375479e-13,4.89999999993,-2.60282102077e-12,1.70554444155e-09,-7.07114607288e-12,1.0
22192000000,1380,22192000000,world,2.00000000003,-2.1567886849e-13,4.89999999996,-1.84506671147e-12,1.09135870298e-09,-8.81139314574e-12,1.0
22208000000,1381,22208000000,world,2.00000000002,-3.74158543693e-16,4.89999999997,-1.21066000173e-12,8.73111990205e-10,-7.5655335802e-12,1.0
22224000000,1382,22224000000,world,2.00000000002,-2.19055914912e-13,4.89999999997,-1.31933722574e-12,6.9857107942e-10,-7.52801879328e-12,1.0
22240000000,1383,22240000000,world,2.00000000001,-6.36260779249e-14,4.89999999998,-8.78615007336e-13,5.58869462774e-10,-5.60618300308e-12,1.0
22256000000,1384,22256000000,world,2.00000000001,1.79244433706e-13,4.89999999998,-3.3470456503e-13,4.47035344482e-10,-3.07190895426e-12,1.0
22272000000,1385,22272000000,world,2.00000000001,1.79244433706e-13,4.89999999998,-3.3470456503e-13,4.47035344482e-10,-3.07190895426e-12,1.0
22288000000,1386,22288000000,world,2.00000000001,-5.47811587665e-14,4.89999999999,-4.77436564528e-13,2.86140460784e-10,-1.76436950211e-12,1.0
22304000000,1387,22304000000,world,2.00000000001,9.50563717132e-14,4.89999999999,-1.59534292695e-13,2.28922552164e-10,-5.23560937259e-13,1.0
22320000000,1388,22320000000,world,2.00000000001,9.50563717132e-14,4.89999999999,-1.59534292695e-13,2.28922552164e-10,-5.23560937259e-13,1.0
22336000000,1389,22336000000,world,2.0,4.88744444276e-14,4.89999999999,-1.20084375232e-13,1.464960605e-10,-2.27983057207e-13,1.0
22352000000,1390,22352000000,world,2.0,-1.00840313552e-13,4.9,-3.18622694697e-13,1.17162068146e-10,-8.33669961745e-13,1.0
22368000000,1391,22368000000,world,2.0,-1.62615844909e-13,4.9,-3.84696186447e-13,9.37159791937e-11,-9.66841360891e-13,1.0
22384000000,1392,22384000000,world,2.0,-1.62615844909e-13,4.9,-3.84696186447e-13,9.37159791937e-11,-9.66841360891e-13,1.0
22400000000,1393,22400000000,world,2.0,9.82489088414e-14,4.9,7.93864110015e-14,5.99920356412e-11,9.21696798363e-13,1.0
22416000000,1394,22416000000,world,2.0,1.38679920392e-13,4.9,1.61026045468e-13,4.80000708191e-11,1.32474495767e-12,1.0
22432000000,1395,22432000000,world,2.0,4.44155500548e-14,4.9,2.35884103392e-14,3.84067554141e-11,8.39196027692e-13,1.0
22448000000,1396,22448000000,world,2.0,-2.14429484199e-14,4.9,-7.35965068866e-14,3.07316774103e-11,1.1528759232e-13,1.0
22464000000,1397,22464000000,world,2.0,-1.93137575577e-14,4.9,-6.66026622874e-14,2.45855848474e-11,-5.89682172906e-13,1.0
22480000000,1398,22480000000,world,2.0,-1.93137575577e-14,4.9,-6.66026622874e-14,2.45855848474e-11,-5.89682172906e-13,1.0
22496000000,1399,22496000000,world,2.0,-2.01519420491e-15,4.9,-3.74085540269e-14,1.96700136072e-11,-1.26935009104e-12,1.0
22512000000,1400,22512000000,world,2.0,-7.29884804529e-15,4.9,-4.52439917455e-14,1.57325169691e-11,-2.02405896055e-12,1.0
22528000000,1401,22528000000,world,2.0,-8.49772261369e-14,4.9,-1.68274704541e-13,1.00347963714e-11,-3.48535235785e-12,1.0
22544000000,1402,22544000000,world,2.0,-1.42293513658e-13,4.9,-2.58055635807e-13,8.01688820963e-12,-3.95661262618e-12,1.0
22560000000,1403,22560000000,world,2.0,-1.46799432886e-13,4.9,-2.62213481291e-13,6.41770400909e-12,-3.84236692197e-12,1.0
22576000000,1404,22576000000,world,2.0,-6.20649633904e-14,4.9,-1.22860604011e-13,5.14375495277e-12,-2.99717903823e-12,1.0
22592000000,1405,22592000000,world,2.0,1.60928759439e-14,4.9,7.25174888495e-15,4.12137313649e-12,-1.93809774956e-12,1.0
22608000000,1406,22608000000,world,2.0,-1.95094345984e-14,4.9,-4.20658856808e-14,3.30501521528e-12,-1.13262033776e-12,1.0
22624000000,1407,22624000000,world,2.0,1.35688881462e-15,4.9,-3.02399481037e-15,2.64498050922e-12,-2.5606023353e-13,1.0
22640000000,1408,22640000000,world,2.0,1.35688881462e-15,4.9,-3.02399481037e-15,2.64498050922e-12,-2.5606023353e-13,1.0
22656000000,1409,22656000000,world,2.0,1.94928466062e-14,4.9,3.15973571461e-14,2.11568055852e-12,6.23069463407e-13,1.0
22672000000,1410,22672000000,world,2.0,3.63127114837e-14,4.9,6.83012589597e-14,1.34988734726e-12,2.1015273646e-12,1.0
22688000000,1411,22688000000,world,2.0,5.34816353781e-14,4.9,9.90262366297e-14,1.077531993e-12,2.66059774273e-12,1.0
22704000000,1412,22704000000,world,2.0,6.56261557548e-14,4.9,1.20339024994e-13,8.61151310291e-13,2.98501699738e-12,1.0
22720000000,1413,22720000000,world,2.0,6.38799856819e-14,4.9,1.17976120936e-13,6.89389107746e-13,3.00556185473e-12,1.0
22736000000,1414,22736000000,world,2.0,5.68282749121e-14,4.9,1.05539197604e-13,5.52614914145e-13,2.75260638907e-12,1.0
22752000000,1415,22752000000,world,2.0,4.74683466412e-14,4.9,8.79699018363e-14,4.43748130569e-13,2.2658118475e-12,1.0
22768000000,1416,22768000000,world,2.0,4.74683466412e-14,4.9,8.79699018363e-14,4.43748130569e-13,2.2658118475e-12,1.0
22784000000,1417,22784000000,world,2.0,2.38179120226e-14,4.9,4.17144551221e-14,2.86944687327e-13,7.69392767458e-13,1.0
22800000000,1418,22800000000,world,2.0,-2.42094978695e-16,4.9,-1.46460491123e-15,2.28498386142e-13,-1.23869481234e-13,1.0
22816000000,1419,22816000000,world,2.0,-2.97707971088e-14,4.9,-5.3062427145e-14,1.80979319153e-13,-9.96605011409e-13,1.0
22832000000,1420,22832000000,world,2.0,-4.96791460304e-14,4.9,-8.86400768939e-14,1.41880625557e-13,-1.7099070153e-12,1.0
22848000000,1421,22848000000,world,2.0,-5.26347904919e-14,4.9,-9.62951426453e-14,1.10169103809e-13,-2.19216816759e-12,1.0
22864000000,1422,22864000000,world,2.0,-5.19336068637e-14,4.9,-9.69515306596e-14,8.53515994143e-14,-2.47107207117e-12,1.0
22880000000,1423,22880000000,world,2.0,-4.96150146008e-14,4.9,-9.38790543115e-14,6.73431192431e-14,-2.56040599386e-12,1.0
22896000000,1424,22896000000,world,2.0,-4.99920808142e-14,4.9,-9.39255626747e-14,5.34835533162e-14,-2.47862487584e-12,1.0
22912000000,1425,22912000000,world,2.0,-5.43267108639e-14,4.9,-9.90372674028e-14,4.23869924309e-14,-2.22230977421e-12,1.0
22928000000,1426,22928000000,world,2.0,-4.95772469339e-14,4.9,-8.85429949095e-14,3.45156075515e-14,-1.74180307228e-12,1.0
22944000000,1427,22944000000,world,2.0,-2.5139551429e-14,4.9,-4.58465479493e-14,3.05868678327e-14,-1.02981795821e-12,1.0
22960000000,1428,22960000000,world,2.0,-2.5139551429e-14,4.9,-4.58465479493e-14,3.05868678327e-14,-1.02981795821e-12,1.0
22976000000,1429,22976000000,world,2.0,1.83131328452e-14,4.9,3.27454310038e-14,2.13395817158e-14,6.55472883741e-13,1.0
22992000000,1430,22992000000,world,2.0,3.27307212018e-14,4.9,8.77117828755e-14,-6.14008967497e-15,1.5286240566e-12,1.0
23008000000,1431,23008000000,world,2.0,3.27307212018e-14,4.9,8.77117828755e-14,-6.14008967497e-15,1.5286240566e-12,1.0
23024000000,1432,23024000000,world,1.99999999998,-2.92280380154e-14,4.89999999999,1.72269603561e-12,7.68515449514e-13,7.10930511585e-12,1.0
23040000000,1433,23040000000,world,1.99999999998,-2.92280380154e-14,4.89999999999,1.72269603561e-12,7.68515449514e-13,7.10930511585e-12,1.0
23056000000,1434,23056000000,world,1.99999999988,-5.71891998614e-13,4.89999999992,1.34777234372e-11,9.10637648144e-12,3.63164824618e-11,1.0
23072000000,1435,23072000000,world,1.99999999988,-5.71891998614e-13,4.89999999992,1.34777234372e-11,9.10637648144e-12,3.63164824618e-11,1.0
23088000000,1436,23088000000,world,1.99999999952,-2.46853587654e-12,4.89999999967,5.56837298653e-11,4.1373080987e-11,1.3743724368e-10,1.0
23104000000,1437,23104000000,world,1.99999999952,-2.46853587654e-12,4.89999999967,5.56837298653e-11,4.1373080987e-11,1.3743724368e-10,1.0
23120000000,1438,23120000000,world,1.99999999856,-7.0030892669e-12,4.899999999,1.66770246628e-10,1.30165282385e-10,4.02591349693e-10,1.0
23136000000,1439,23136000000,world,1.99999999856,-7.0030892669e-12,4.899999999,1.66770246628e-10,1.30165282385e-10,4.02591349693e-10,1.0
23152000000,1440,23152000000,world,1.99999999645,-1.62434712003e-11,4.89999999755,4.09555030763e-10,3.25407918109e-10,9.81053216596e-10,1.0
23168000000,1441,23168000000,world,1.99999999473,-2.36227560567e-11,4.89999999635,6.0805440172e-10,4.85548909279e-10,1.45282758723e-09,1.0
23184000000,1442,23184000000,world,1.99999999239,-3.3562246713e-11,4.89999999474,8.76929345476e-10,7.02973945638e-10,2.09036762501e-09,1.0
23200000000,1443,23200000000,world,1.9999999893,-4.67553287176e-11,4.8999999926,1.23328145224e-09,9.91526131401e-10,2.93301026116e-09,1.0
23216000000,1444,23216000000,world,1.9999999893,-4.67553287176e-11,4.8999999926,1.23328145224e-09,9.91526131401e-10,2.93301026116e-09,1.0
23232000000,1445,23232000000,world,1.99999998527,-6.40072312206e-11,4.89999998981,1.69664282198e-09,1.36795272261e-09,4.0254389302e-09,1.0
23248000000,1446,23248000000,world,1.99999998012,-8.62255474829e-11,4.89999998625,2.28907413821e-09,1.84989621569e-09,5.41794063413e-09,1.0
23264000000,1447,23264000000,world,1.99999997363,-1.14414568774e-10,4.89999998177,3.03525691889e-09,2.45711767018e-09,7.16665372854e-09,1.0
23280000000,1448,23280000000,world,1.99999995566,-1.93218617363e-10,4.89999996934,5.10125117204e-09,4.14055127835e-09,1.19879329062e-08,1.0
23296000000,1449,23296000000,world,1.99999994363,-2.463746557e-10,4.89999996102,6.48434089136e-09,5.26766524514e-09,1.52040749126e-08,1.0
23312000000,1450,23312000000,world,1.99999992915,-3.10587923425e-10,4.89999995101,8.14788117275e-09,6.62305993168e-09,1.9063977782e-08,1.0
23328000000,1451,23328000000,world,2.00000155023,6.86765475503e-09,4.90000107013,8.30367812196e-09,1.2621501082e-07,2.42411269531e-08,1.0
23344000000,1452,23344000000,world,2.00000153038,6.84713717611e-09,4.90000105483,1.06604607507e-08,1.90524803781e-07,2.98853470887e-08,1.0
23360000000,1453,23360000000,world,2.00000308298,8.35235031902e-09,4.90000225383,1.21582926249e-08,2.93658207093e-07,3.64630118386e-08,1.0
23376000000,1454,23376000000,world,2.00000305512,8.30942863712e-09,4.90000223467,1.53184513021e-08,2.87293410661e-07,4.39777332942e-08,1.0
23392000000,1455,23392000000,world,2.000004664,1.07829908182e-08,4.90000333945,1.77554407045e-08,3.98884088037e-07,5.32268695683e-08,1.0
23408000000,1456,23408000000,world,2.00000462605,1.08330907515e-08,4.90000331492,2.21846057182e-08,3.98270451724e-07,6.41323086789e-08,1.0
23424000000,1457,23424000000,world,2.00000625594,8.56200637907e-09,4.90000436566,2.64399524966e-08,5.29262479799e-07,7.63157190109e-08,1.0
23440000000,1458,23440000000,world,2.00000620553,8.60448691551e-09,4.90000433505,3.20222814019e-08,5.31044352086e-07,9.0325236436e-08,1.0
23456000000,1459,23456000000,world,2.00000620553,8.60448691551e-09,4.90000433505,3.20222814019e-08,5.31044352086e-07,9.0325236436e-08,1.0
23472000000,1460,23472000000,world,2.00000778623,7.22139659752e-09,4.90000529388,4.47853636824e-08,6.74713324356e-07,1.24177688368e-07,1.0
23488000000,1461,23488000000,world,2.0000094363,5.8727219629e-09,4.90000624857,5.21415250294e-08,8.20820090448e-07,1.44299164568e-07,1.0
23504000000,1462,23504000000,world,2.00000935354,6.02278064689e-09,4.90000620201,6.13288478205e-08,8.26222533213e-07,1.66919995159e-07,1.0
23520000000,1463,23520000000,world,2.00001099811,2.83408866353e-09,4.90000712391,7.08587862826e-08,9.76940916794e-07,1.91015003318e-07,1.0
23536000000,1464,23536000000,world,2.00001089504,2.9523059605e-09,4.90000706712,8.18954777365e-08,9.84102342723e-07,2.17321469402e-07,0.999999999999
23552000000,1465,23552000000,world,2.00001252651,9.9796481763e-10,4.90000796225,9.3518024024e-08,1.13855006687e-06,2.46028367561e-07,0.999999999999
23568000000,1466,23568000000,world,2.00001252651,9.9796481763e-10,4.90000796225,9.3518024024e-08,1.13855006687e-06,2.46028367561e-07,0.999999999999
23584000000,1467,23584000000,world,2.0000124,1.22066289858e-09,4.90000789351,1.0720120311e-07,1.14761492639e-06,2.77992849228e-07,0.999999999999
23600000000,1468,23600000000,world,2.00001401208,-1.7746768286e-09,4.90000876541,1.21693785144e-07,1.30528617933e-06,3.12606398439e-07,0.999999999999
23616000000,1469,23616000000,world,2.00001385882,-1.46650467681e-09,4.90000868285,1.38238150177e-07,1.31640473486e-06,3.50703460151e-07,0.999999999999
23632000000,1470,23632000000,world,2.00001526228,-4.58183875628e-09,4.90000943502,1.75268810802e-07,1.4904418467e-06,4.36102744479e-07,0.999999999999
23648000000,1471,23648000000,world,2.00001526228,-4.58183875628e-09,4.90000943502,1.75268810802e-07,1.4904418467e-06,4.36102744479e-07,0.999999999999
23664000000,1472,23664000000,world,2.00001659946,-6.92306740142e-09,4.90001014717,2.19793431321e-07,1.67008476221e-06,5.39232699006e-07,0.999999999998
23680000000,1473,23680000000,world,2.00001812043,-1.01838140333e-08,4.9000109549,2.44813524297e-07,1.83665707119e-06,5.97645146876e-07,0.999999999998
23696000000,1474,23696000000,world,2.00001786329,-9.69832801504e-09,4.90001081766,2.72366233123e-07,1.85557166787e-06,6.61264091789e-07,0.999999999998
23712000000,1475,23712000000,world,2.00001786329,-9.69832801504e-09,4.90001081766,2.72366233123e-07,1.85557166787e-06,6.61264091789e-07,0.999999999998
23728000000,1476,23728000000,world,2.00001904458,-1.21567505189e-08,4.90001144283,3.33640685128e-07,2.04735933582e-06,8.04013906816e-07,0.999999999998
23744000000,1477,23744000000,world,2.00002048093,-1.48096058174e-08,4.90001220355,3.67677647194e-07,2.22047417166e-06,8.84016065298e-07,0.999999999997
23760000000,1478,23760000000,world,2.0000201338,-1.41377099077e-08,4.90001201829,4.04940673697e-07,2.2460857364e-06,9.70831543113e-07,0.999999999997
23776000000,1479,23776000000,world,2.00002152048,-1.70559154997e-08,4.90001275228,4.44363207428e-07,2.42290759396e-06,1.06358168012e-06,0.999999999996
23792000000,1480,23792000000,world,2.00002112112,-1.63488744218e-08,4.9000125391,4.86992118094e-07,2.45240052357e-06,1.16308032067e-06,0.999999999996
23808000000,1481,23808000000,world,2.00002245307,-1.88857285391e-08,4.90001324368,5.32120277312e-07,2.63331397537e-06,1.26935669809e-06,0.999999999996
23824000000,1482,23824000000,world,2.00002199628,-1.79974389714e-08,4.90001299984,5.81031599623e-07,2.6670697961e-06,1.38360507866e-06,0.999999999995
23840000000,1483,23840000000,world,2.0000232683,-2.07101550602e-08,4.90001367203,6.32702420353e-07,2.85247976722e-06,1.50497755421e-06,0.999999999995
23856000000,1484,23856000000,world,2.0000227486,-1.96759831151e-08,4.90001339476,6.88290657606e-07,2.89087298269e-06,1.63440139994e-06,0.999999999994
23872000000,1485,23872000000,world,2.0000227486,-1.96759831151e-08,4.90001339476,6.88290657606e-07,2.89087298269e-06,1.63440139994e-06,0.999999999994
23888000000,1486,23888000000,world,2.00002336686,-2.12249512557e-08,4.90001371779,8.09431120487e-07,3.12464211115e-06,1.91656140525e-06,0.999999999993
23904000000,1487,23904000000,world,2.00002336686,-2.12249512557e-08,4.90001371779,8.09431120487e-07,3.12464211115e-06,1.91656140525e-06,0.999999999993
23920000000,1488,23920000000,world,2.0000245026,-2.37066102857e-08,4.9000143152,8.75638190809e-07,3.32038839318e-06,2.07102660714e-06,0.999999999992
23936000000,1489,23936000000,world,2.00002489826,-2.48557656169e-08,4.90001451727,1.02096192902e-06,3.57092170518e-06,2.40899580524e-06,0.99999999999
23952000000,1490,23952000000,world,2.00002415359,-2.31973918447e-08,4.90001412308,1.1002950699e-06,3.62559932224e-06,2.59271764181e-06,0.999999999989
23968000000,1491,23968000000,world,2.0000251297,-2.57835095206e-08,4.90001463101,1.18357778765e-06,3.83370110104e-06,2.78587840519e-06,0.999999999988
23984000000,1492,23984000000,world,2.0000251297,-2.57835095206e-08,4.90001463101,1.18357778765e-06,3.83370110104e-06,2.78587840519e-06,0.999999999988
24000000000,1493,24000000000,world,2.00002518365,-2.61314747602e-08,4.90001464997,1.36492311889e-06,4.10964107471e-06,3.20607326589e-06,0.999999999985
24016000000,1494,24016000000,world,2.00002425483,-2.37840233265e-08,4.9000141655,1.46351809259e-06,4.17699987499e-06,3.43464857121e-06,0.999999999984
24032000000,1495,24032000000,world,2.00002504607,-2.6182027869e-08,4.90001456804,1.56699280022e-06,4.39964557788e-06,3.67496536887e-06,0.999999999982
24048000000,1496,24048000000,world,2.00002401334,-2.3296459898e-08,4.90001403611,1.67625200978e-06,4.47375173389e-06,3.92829060643e-06,0.999999999981
24064000000,1497,24064000000,world,2.00002401334,-2.3296459898e-08,4.90001403611,1.67625200978e-06,4.47375173389e-06,3.92829060643e-06,0.999999999981
24080000000,1498,24080000000,world,2.0000235564,-2.20283062242e-08,4.90001380045,1.91118114848e-06,4.78547611484e-06,4.47315444027e-06,0.999999999977
24096000000,1499,24096000000,world,2.00002413549,-2.43250249457e-08,4.9000140811,2.03772607546e-06,5.02495848515e-06,4.76674775762e-06,0.999999999974
24112000000,1500,24112000000,world,2.00002286647,-1.96007839041e-08,4.90001345695,2.17076010598e-06,5.11261607459e-06,5.07606242331e-06,0.999999999972
24128000000,1501,24128000000,world,2.00002332846,-2.1916391223e-08,4.90001367054,2.31019163252e-06,5.36140763593e-06,5.39970047618e-06,0.999999999968
24144000000,1502,24144000000,world,2.0000219231,-1.53381011262e-08,4.9000130096,2.45616933558e-06,5.455037502e-06,5.73934744141e-06,0.999999999966
24160000000,1503,24160000000,world,2.0000219231,-1.53381011262e-08,4.9000130096,2.45616933558e-06,5.455037502e-06,5.73934744141e-06,0.999999999966
24176000000,1504,24176000000,world,2.00002070004,-7.35294334599e-09,4.9000124768,2.76842710581e-06,5.81115573935e-06,6.464676103e-06,0.999999999958
24192000000,1505,24192000000,world,2.00002090388,-9.52099120915e-09,4.90001254616,2.93582751034e-06,6.08014910112e-06,6.85149548199e-06,0.999999999954
24208000000,1506,24208000000,world,2.0000191548,8.23060739618e-09,4.90001192982,3.10927750196e-06,6.17462929217e-06,7.25738562886e-06,0.99999999995
24224000000,1507,24224000000,world,2.00001921665,6.42686462036e-09,4.9000119262,3.29199806106e-06,6.454261671e-06,7.6793093468e-06,0.999999999944
24240000000,1508,24240000000,world,2.00001721713,6.24878161135e-08,4.90001199408,3.47626475652e-06,6.43729414724e-06,8.124318138e-06,0.99999999994
24256000000,1509,24256000000,world,2.00001713979,6.21930042814e-08,4.90001193741,3.6749644579e-06,6.79738242788e-06,8.58365907855e-06,0.999999999933
24272000000,1510,24272000000,world,2.00001859301,6.77566911859e-08,4.900013007,3.8807180615e-06,7.21236669555e-06,9.06342484418e-06,0.999999999925
24288000000,1511,24288000000,world,2.00001836513,6.69940128216e-08,4.90001284489,4.09726312548e-06,7.51721707073e-06,9.56358476518e-06,0.999999999918
24304000000,1512,24304000000,world,2.00001968146,7.11797242505e-08,4.90001378089,4.3210543238e-06,7.94636470614e-06,1.00847782044e-05,0.999999999908
24304000000,1513,24320000000,world,2.00001929498,6.9764260471e-08,4.90001350557,4.55552228191e-06,8.33851468991e-06,1.06267755862e-05,0.999999999898
24336000000,1514,24336000000,world,2.00002044563,7.39328328641e-08,4.9000143296,4.79802376438e-06,8.77357587348e-06,1.11917536888e-05,0.999999999887
24336000000,1515,24352000000,world,2.00001989118,7.19929682704e-08,4.9000139367,5.05224816935e-06,9.09903874677e-06,1.17796453117e-05,0.999999999876
24368000000,1516,24368000000,world,2.00001989118,7.19929682704e-08,4.9000139367,5.05224816935e-06,9.09903874677e-06,1.17796453117e-05,0.999999999876
24384000000,1517,24384000000,world,2.0000201414,7.28206624265e-08,4.90001411703,5.58948544951e-06,9.89660172667e-06,1.3026386474e-05,0.999999999851
24400000000,1518,24400000000,world,2.00002094505,7.53048660776e-08,4.90001468185,5.87282455091e-06,1.03717922128e-05,1.36857241423e-05,0.999999999835
24416000000,1519,24416000000,world,2.00002002412,7.24412453144e-08,4.90001403756,6.16860486812e-06,1.07394886821e-05,1.43695434584e-05,0.99999999982
24432000000,1520,24432000000,world,2.00002063809,7.42082592172e-08,4.90001446577,6.47374872909e-06,1.12374373168e-05,1.50792810762e-05,0.999999999802
24448000000,1521,24448000000,world,2.00001951843,7.1100808135e-08,4.90001368752,6.79203189448e-06,1.1624668743e-05,1.58155107714e-05,0.999999999784
24464000000,1522,24464000000,world,2.00001993226,7.21557729706e-08,4.90001397335,7.12041728309e-06,1.21445512499e-05,1.6579121585e-05,0.999999999763
24480000000,1523,24480000000,world,2.00001860227,6.86945051878e-08,4.90001305683,7.46220339641e-06,1.25510953322e-05,1.73697754092e-05,0.999999999743
24496000000,1524,24496000000,world,2.00001860227,6.86945051878e-08,4.90001305683,7.46220339641e-06,1.25510953322e-05,1.73697754092e-05,0.999999999743
24512000000,1525,24512000000,world,2.00001724892,6.6295490171e-08,4.9000121414,8.18081552677e-06,1.35174358272e-05,1.9034932993e-05,0.999999999694
24528000000,1526,24528000000,world,2.00001723012,6.59437025734e-08,4.90001212477,8.55837395315e-06,1.40796019098e-05,1.99099778214e-05,0.999999999666
24544000000,1527,24544000000,world,2.00001858713,9.30458158667e-08,4.90001334735,8.94457531965e-06,1.47246956258e-05,2.08165126956e-05,0.999999999635
24560000000,1528,24560000000,world,2.00001834935,9.01824445365e-08,4.90001315348,9.34867017317e-06,1.53906754204e-05,2.17514996823e-05,0.999999999601
24576000000,1529,24576000000,world,2.00001953284,1.05442860302e-07,4.90001413646,9.76329222273e-06,1.60830457471e-05,2.27197929007e-05,0.999999999565
24592000000,1530,24592000000,world,2.00001906114,1.00547087235e-07,4.90001376378,1.01954124545e-05,1.66853269569e-05,2.37197244041e-05,0.999999999528
24608000000,1531,24608000000,world,2.00002002624,1.11548557839e-07,4.90001453732,1.06391359747e-05,1.73955201232e-05,2.47552664574e-05,0.999999999486
24624000000,1532,24624000000,world,2.00001930902,1.04351471566e-07,4.90001397761,1.11006688748e-05,1.80295200701e-05,2.58238281785e-05,0.999999999442
24640000000,1533,24640000000,world,2.00002003048,1.12293079413e-07,4.90001455078,1.15742249265e-05,1.87760613547e-05,2.69281114471e-05,0.999999999394
24656000000,1534,24656000000,world,2.00001906032,1.02559680289e-07,4.90001379069,1.20662209762e-05,1.95175318705e-05,2.8066227568e-05,0.999999999343
24672000000,1535,24672000000,world,2.00001951889,1.07898339758e-07,4.9000141658,1.2571099469e-05,2.02893056079e-05,2.92410862959e-05,0.999999999288
24672000000,1536,24688000000,world,2.00001829589,9.46720374637e-08,4.90001318503,1.30952453698e-05,2.09715646579e-05,3.04510959005e-05,0.999999999231
24704000000,1537,24704000000,world,2.00001848354,9.76078933215e-08,4.90001335001,1.36327817965e-05,2.1760672378e-05,3.16999456209e-05,0.999999999168
24720000000,1538,24720000000,world,2.00001703015,7.65737356998e-08,4.90001210029,1.41910485932e-05,2.24882937661e-05,3.29857960671e-05,0.999999999102
24736000000,1539,24736000000,world,2.0000169376,7.67585917094e-08,4.9000120449,1.47628057931e-05,2.33098008864e-05,3.4312945072e-05,0.999999999031
24752000000,1540,24752000000,world,2.00001840302,7.29054865996e-08,4.90001290474,1.53515983751e-05,2.43020780872e-05,3.56803742344e-05,0.99999999895
24768000000,1541,24768000000,world,2.00001799663,7.31322997225e-08,4.90001264901,1.59587846464e-05,2.52313784034e-05,3.70897469804e-05,0.999999998867
24784000000,1542,24784000000,world,2.00001799663,7.31322997225e-08,4.90001264901,1.59587846464e-05,2.52313784034e-05,3.70897469804e-05,0.999999998867
24800000000,1543,24800000000,world,2.00001838407,7.17010127838e-08,4.90001288078,1.72267665916e-05,2.71379149892e-05,4.00323943731e-05,0.999999998682
24816000000,1544,24816000000,world,2.00001916953,7.08659138527e-08,4.90001336706,1.78883050754e-05,2.81818481495e-05,4.15665882382e-05,0.999999998579
24832000000,1545,24832000000,world,2.00001916953,7.08659138527e-08,4.90001336706,1.78883050754e-05,2.81818481495e-05,4.15665882382e-05,0.999999998579
24848000000,1546,24848000000,world,2.00001853404,7.00952518188e-08,4.9000129547,1.92697783702e-05,3.01833756346e-05,4.4763770514e-05,0.999999998357
24864000000,1547,24864000000,world,2.00001709114,7.2409652485e-08,4.90001207703,1.99901417175e-05,3.11379168679e-05,4.64287691065e-05,0.999999998238
24880000000,1548,24880000000,world,2.00001717316,7.11779083927e-08,4.90001210989,2.07302187004e-05,3.22465972304e-05,4.81394777144e-05,0.999999998107
24896000000,1549,24896000000,world,2.00001717316,7.11779083927e-08,4.90001210989,2.07302187004e-05,3.22465972304e-05,4.81394777144e-05,0.999999998107
24912000000,1550,24912000000,world,2.00001522521,9.7165926862e-08,4.90001127903,2.14887259265e-05,3.32018334051e-05,4.99002679307e-05,0.999999997973
24928000000,1551,24928000000,world,2.00001615052,9.39384145387e-08,4.90001181138,2.30731985273e-05,3.56371437144e-05,5.35645079812e-05,0.999999997664
24944000000,1552,24944000000,world,2.00001615052,9.39384145387e-08,4.90001181138,2.30731985273e-05,3.56371437144e-05,5.35645079812e-05,0.999999997664
24960000000,1553,24960000000,world,2.00001628048,9.25870071627e-08,4.90001187192,2.4745211599e-05,3.81378138464e-05,5.74330916989e-05,0.999999997317
24976000000,1554,24976000000,world,2.00001518278,9.44299784759e-08,4.90001121066,2.56152013093e-05,3.93438067536e-05,5.94457372286e-05,0.999999997131
24992000000,1555,24992000000,world,2.00001559062,9.24205339391e-08,4.90001143619,2.6507561686e-05,4.07066411046e-05,6.15103578052e-05,0.999999996928
25008000000,1556,25008000000,world,2.00001405045,9.81333042181e-08,4.90001055844,2.74232233508e-05,4.19428342374e-05,6.36287062059e-05,0.99999999672
25024000000,1557,25024000000,world,2.00001405045,9.81333042181e-08,4.90001055844,2.74232233508e-05,4.19428342374e-05,6.36287062059e-05,0.99999999672
25040000000,1558,25040000000,world,2.00001463616,1.76709386958e-07,4.90001214542,2.93152874435e-05,4.46566569017e-05,6.80344582037e-05,0.999999996259
25056000000,1559,25056000000,world,2.00001433738,1.63803229531e-07,4.90001174957,3.03048521348e-05,4.62216467967e-05,7.03183967618e-05,0.999999996
25072000000,1560,25072000000,world,2.00001501612,2.01939237267e-07,4.90001279379,3.13125367546e-05,4.77463651373e-05,7.26647490142e-05,0.99999999573
25088000000,1561,25088000000,world,2.00001438795,1.78030079263e-07,4.90001201691,3.23542310475e-05,4.92627533501e-05,7.50651449123e-05,0.999999995446
25104000000,1562,25104000000,world,2.00001478378,2.01085467187e-07,4.90001263187,3.34153929668e-05,5.08049644433e-05,7.75294634138e-05,0.999999995146
25120000000,1563,25120000000,world,2.00001387661,1.6041649423e-07,4.90001140931,3.4511303603e-05,5.25052061521e-05,8.00486803221e-05,0.999999994822
25136000000,1564,25136000000,world,2.0000139186,1.72046639991e-07,4.90001162694,3.5626302882e-05,5.41471884288e-05,8.26314966078e-05,0.999999994485
25152000000,1565,25152000000,world,2.0000133478,7.80987362889e-08,4.9000097289,3.6781686319e-05,5.58823425625e-05,8.52656415397e-05,0.999999994127
25168000000,1566,25168000000,world,2.0000131044,7.76653199624e-08,4.90000957203,3.79519449822e-05,5.74786269682e-05,8.79685288275e-05,0.999999993759
25184000000,1567,25184000000,world,2.0000131044,7.76653199624e-08,4.90000957203,3.79519449822e-05,5.74786269682e-05,8.79685288275e-05,0.999999993759
25200000000,1568,25200000000,world,2.00001429064,7.92726012541e-08,4.90001032172,3.91486284647e-05,5.92495738953e-05,9.07350274363e-05,0.999999993362
25216000000,1569,25216000000,world,2.00001421436,7.87095515632e-08,4.90001025893,4.16285692855e-05,6.29188876233e-05,9.64673636913e-05,0.999999992501
25216000000,1570,25232000000,world,2.00001294683,7.66774699337e-08,4.90000943639,4.29126563396e-05,6.4820700779e-05,9.94360188031e-05,0.999999992035
25248000000,1571,25248000000,world,2.00001294683,7.66774699337e-08,4.90000943639,4.29126563396e-05,6.4820700779e-05,9.94360188031e-05,0.999999992035
25264000000,1572,25264000000,world,2.0000112213,7.81306943431e-08,4.90000845285,4.55685820324e-05,6.89218221052e-05,0.000105583433154,0.999999991013
25280000000,1573,25280000000,world,2.0000112213,7.81306943431e-08,4.90000845285,4.55685820324e-05,6.89218221052e-05,0.000105583433154,0.999999991013
25296000000,1574,25296000000,world,2.00001181439,7.91724832005e-08,4.90000880563,4.83446301079e-05,7.30577908453e-05,0.000112009795105,0.99999998989
25312000000,1575,25312000000,world,2.00001083855,7.66890989453e-08,4.90000819097,4.9780393548e-05,7.51022741813e-05,0.000115329692166,0.99999998929
25328000000,1576,25328000000,world,2.0000112669,7.74108530117e-08,4.90000844115,5.12470269481e-05,7.7310408565e-05,0.000118723421531,0.999999988651
25344000000,1577,25344000000,world,2.0000096892,7.43315033514e-08,4.90000749129,5.27479549251e-05,7.94073591459e-05,0.000122192597161,0.999999987991
25360000000,1578,25360000000,world,2.00000952837,7.35045977041e-08,4.90000736637,5.4281034192e-05,8.16716695477e-05,0.000125738808924,0.999999987287
25376000000,1579,25376000000,world,2.00001064637,7.9770314148e-08,4.90000825802,5.58461843499e-05,8.40737129761e-05,0.000129363657623,0.999999986539
25392000000,1580,25392000000,world,2.00000990873,7.62324222241e-08,4.90000770346,5.74480072203e-05,8.64002379215e-05,0.000133066570887,0.999999985764
25408000000,1581,25408000000,world,2.00001046057,7.89491193786e-08,4.90000813458,5.90828296194e-05,8.88710372892e-05,0.000136848781007,0.999999984942
25424000000,1582,25424000000,world,2.00000913569,7.26291543856e-08,4.90000712943,6.07553111732e-05,9.12604493305e-05,0.000140709427527,0.999999984091
25424000000,1583,25440000000,world,2.00000908634,7.22419964966e-08,4.90000711092,6.24617525626e-05,9.37935552559e-05,0.000144649534735,0.999999983189
25456000000,1584,25456000000,world,2.00001058692,8.48100613671e-08,4.90000757176,6.42022932228e-05,9.65316054596e-05,0.000148670780623,0.999999982228
25472000000,1585,25472000000,world,2.00001058692,8.48100613671e-08,4.90000757176,6.42022932228e-05,9.65316054596e-05,0.000148670780623,0.999999982228
25488000000,1586,25488000000,world,2.00000986229,7.98738814296e-08,4.90000722847,6.59822812308e-05,9.91137949468e-05,0.000152772922724,0.999999981242
25504000000,1587,25504000000,world,2.000009171,7.56629910832e-08,4.90000686677,6.96537731207e-05,0.000104512878423,0.000161232403556,0.999999979115
25520000000,1588,25520000000,world,2.0000092137,7.6735525985e-08,4.90000680225,7.15465061514e-05,0.000107334899977,0.00016559387313,0.999999977969
25536000000,1589,25536000000,world,2.00000781272,4.87426307295e-08,4.90000817093,7.34806946914e-05,0.000109803543473,0.000170042441634,0.999999976815
25552000000,1590,25552000000,world,2.00000750201,4.75962566624e-08,4.90000790055,7.54518576228e-05,0.000112812232106,0.00017458276127,0.999999975551
25568000000,1591,25568000000,world,2.00000834616,5.04236122026e-08,4.90000869574,7.7461086364e-05,0.000115946597503,0.000179213788257,0.999999974219
25584000000,1592,25584000000,world,2.00000738601,4.71505528297e-08,4.90000788806,7.95128228223e-05,0.000118922319852,0.00018393604794,0.999999972851
