%time,field.header.seq,field.header.stamp,field.header.frame_id,field.pose.position.x,field.pose.position.y,field.pose.position.z,field.pose.orientation.x,field.pose.orientation.y,field.pose.orientation.z,field.pose.orientation.w
18448000000,181,18448000000,world,3.0,0.5,4.9,0.462906153979,-0.534527575725,0.534525612299,0.462904453633
18544000000,182,18544000000,world,3.0,0.5,4.9,0.438969002776,-0.554353723902,0.554351687651,0.438967390356
18640000000,183,18640000000,world,3.0,0.5,4.9,0.421349005333,-0.567861648914,0.567859563046,0.421347457634
18752000000,184,18752000000,world,3.0,0.5,4.9,0.392300382008,-0.588304552829,0.588302391869,0.392298941011
18848000000,185,18848000000,world,3.0,0.5,4.9,0.373637521918,-0.60033060793,0.600328402797,0.373636149473
18928000000,186,18944000000,world,3.0,0.5,4.9,0.346894877839,-0.616170252716,0.6161679894,0.346893603625
19040000000,187,19040000000,world,3.0,0.5,4.9,0.323437159224,-0.628800636637,0.628798326928,0.323435971176
19152000000,188,19152000000,world,3.0,0.5,4.9,0.295491888731,-0.642406709411,0.642404349724,0.29549080333
19248000000,189,19248000000,world,3.0,0.5,4.9,0.271082312582,-0.653082090099,0.653079691199,0.271081316843
19344000000,190,19344000000,world,3.0,0.5,4.9,0.246287914188,-0.662830370402,0.662827935695,0.246287009524
19440000000,191,19440000000,world,3.0,0.5,4.9,0.221143891109,-0.671637711886,0.671635244827,0.221143078804
19552000000,192,19552000000,world,3.0,0.5,4.9,0.191414955391,-0.680707096669,0.680704596297,0.191414252286
19648000000,193,19648000000,world,3.0,0.5,4.9,0.165636453695,-0.687434652756,0.687432127672,0.16563584528
19744000000,194,19744000000,world,3.0,0.5,4.9,0.139622818282,-0.693186342348,0.693183796137,0.139622305419
19840000000,195,19840000000,world,3.0,0.5,4.9,0.113410977512,-0.697954000477,0.697951436754,0.113410560931
19952000000,196,19952000000,world,3.0,0.5,4.9,0.0826296419451,-0.702263610672,0.702261031119,0.08262933843
20048000000,197,20048000000,world,3.0,0.5,4.9,0.0561163082313,-0.704877859315,0.704875270159,0.0561161021049
20144000000,198,20144000000,world,3.0,0.5,4.9,0.0339594099364,-0.706292145701,0.70628955135,0.0339592851967
20240000000,199,20240000000,world,3.0,0.5,4.9,0.00288840733135,-0.707102180527,0.7070995832,0.00288839672166
20352000000,200,20352000000,world,3.0,0.5,4.9,-0.0237505987452,-0.7067090955,0.706706499617,-0.0237505115046
20448000000,201,20448000000,world,3.0,0.5,4.9,-0.0547841729997,-0.70498264588,0.704980056338,-0.0547839717666
20544000000,202,20544000000,world,3.0,0.5,4.9,-0.0813023996195,-0.70241850518,0.702415925057,-0.0813021009796
20624000000,203,20640000000,world,3.0,0.5,4.9,-0.107705211214,-0.69885722725,0.698854660209,-0.107704815591
20752000000,204,20752000000,world,3.0,0.5,4.9,-0.138312627857,-0.693448955279,0.693446408104,-0.138312119808
20848000000,205,20848000000,world,3.0,0.5,4.9,-0.164337086013,-0.687746434933,0.687743908704,-0.16433648237
20944000000,206,20944000000,world,3.0,0.5,4.9,-0.190128255003,-0.681067605493,0.681065103797,-0.190127556625
21040000000,207,21040000000,world,3.0,0.5,4.9,-0.215649522276,-0.673421948072,0.673419474459,-0.215648730152
21152000000,208,21152000000,world,3.0,0.5,4.9,-0.245034898165,-0.663294606705,0.663292170292,-0.245033998103
21248000000,209,21248000000,world,3.0,0.5,4.9,-0.26984767399,-0.653593198744,0.653590797967,-0.269846682786
21344000000,210,21344000000,world,3.0,0.5,4.9,-0.294277380235,-0.642963964841,0.642961603107,-0.294276299296
21440000000,211,21440000000,world,3.0,0.5,4.9,-0.314317808891,-0.633408360867,0.633406034232,-0.31431665434
21552000000,212,21552000000,world,3.0,0.5,4.9,-0.341849457605,-0.618983670978,0.618981397328,-0.341848201925
21648000000,213,21648000000,world,3.0,0.5,4.9,-0.368720612275,-0.603363030593,0.603360814321,-0.368719257891
21744000000,214,21744000000,world,3.0,0.5,4.9,-0.387481097214,-0.591489844295,0.591487671636,-0.387479673919
21840000000,215,21840000000,world,3.0,0.5,4.9,-0.41309994548,-0.573890470078,0.573888362065,-0.413098428082
21952000000,216,21952000000,world,3.0,0.5,4.9,-0.434425524136,-0.557921410758,0.557919361402,-0.434423928405
22048000000,217,22048000000,world,3.0,0.5,4.9,-0.458523847557,-0.538291480356,0.538289503105,-0.458522163308
22144000000,218,22144000000,world,3.0,0.5,4.9,-0.478476149922,-0.520636543626,0.520634631224,-0.478474392384
22240000000,219,22240000000,world,3.0,0.5,4.9,-0.497749218498,-0.502242523177,0.502240678341,-0.497747390166
22352000000,220,22352000000,world,3.0,0.5,4.9,-0.519339543952,-0.479883605357,0.47988184265,-0.519337636315
22448000000,221,22448000000,world,3.0,0.5,4.9,-0.537048420953,-0.459979162739,0.459977473145,-0.537046448268
22544000000,222,22544000000,world,3.0,0.5,4.9,-0.553994916311,-0.439421744232,0.439420130149,-0.553992881378
22640000000,223,22640000000,world,3.0,0.5,4.9,-0.567517231748,-0.42181278818,0.421811238778,-0.567515147144
22752000000,224,22752000000,world,3.0,0.5,4.9,-0.587983860567,-0.392780875699,0.392779432937,-0.587981700786
22848000000,225,22848000000,world,3.0,0.5,4.9,-0.602362803453,-0.370352385735,0.370351025357,-0.602360590854
22944000000,226,22944000000,world,3.0,0.5,4.9,-0.615886645892,-0.347398152002,0.34739687594,-0.615884383618
23040000000,227,23040000000,world,3.0,0.5,4.9,-0.626489425229,-0.327891501383,0.327890296972,-0.626487124009
23152000000,228,23152000000,world,3.0,0.5,4.9,-0.642165088308,-0.296016614332,0.296015527004,-0.642162729509
23248000000,229,23248000000,world,3.0,0.5,4.9,-0.651141820328,-0.275710294373,0.275709281634,-0.651139428554
23344000000,230,23344000000,world,3.0,0.5,4.9,-0.66262894044,-0.246829341639,0.246828434986,-0.662626506473
23440000000,231,23440000000,world,3.0,0.5,4.9,-0.671456820788,-0.221692522247,0.221691707926,-0.671454354394
23552000000,232,23552000000,world,3.0,0.5,4.9,-0.680550490063,-0.191971005825,0.191970300677,-0.680547990266
23648000000,233,23648000000,world,3.0,0.5,4.9,-0.686241848553,-0.170510884982,0.170510258662,-0.68623932785
23744000000,234,23744000000,world,3.0,0.5,4.9,-0.693072043974,-0.140189081114,0.140188566172,-0.693069498183
23840000000,235,23840000000,world,3.0,0.5,4.9,-0.697861114686,-0.113981144105,0.113980725429,-0.697858551304
23952000000,236,23952000000,world,3.0,0.5,4.9,-0.701659517736,-0.0876114020723,0.0876110802583,-0.701656940401
24048000000,237,24048000000,world,3.0,0.5,4.9,-0.70483177899,-0.0566921504993,0.0566919422578,-0.704829190003
24144000000,238,24144000000,world,3.0,0.5,4.9,-0.706467124186,-0.0301004825058,0.0301003719407,-0.706464529192
24240000000,239,24240000000,world,3.0,0.5,4.9,-0.707099584826,-0.00346608455642,0.0034660718248,-0.707096987508
24336000000,240,24352000000,world,3.0,0.5,4.9,-0.70656880234,0.0276109427991,-0.0276108413786,-0.706566206973
24448000000,241,24448000000,world,3.0,0.5,4.9,-0.705027167402,0.0542082081154,-0.0542080089979,-0.705024577698
24544000000,242,24544000000,world,3.0,0.5,4.9,-0.702484692038,0.0807285207004,-0.0807282241685,-0.702482111673
24640000000,243,24640000000,world,3.0,0.5,4.9,-0.698944985487,0.107134232926,-0.1071338394,-0.698942418124
24752000000,244,24752000000,world,3.0,0.5,4.9,-0.693561720529,0.137746057727,-0.137745551759,-0.693559172939
24848000000,245,24848000000,world,3.0,0.5,4.9,-0.688895386885,0.159452132415,-0.159451546716,-0.688892856435
24944000000,246,24944000000,world,3.0,0.5,4.9,-0.682399761013,0.185290050387,-0.18528936978,-0.682397254423
25040000000,247,25040000000,world,3.0,0.5,4.9,-0.673597901591,0.215099287714,-0.215098497611,-0.673595427332
25152000000,248,25152000000,world,3.0,0.5,4.9,-0.663494570446,0.244492927486,-0.244492029415,-0.663492133299
25248000000,249,25248000000,world,3.0,0.5,4.9,-0.6554918008,0.265202442836,-0.265201468695,-0.655489393049
25344000000,250,25344000000,world,3.0,0.5,4.9,-0.643204164783,0.29375200256,-0.293750923551,-0.643201802167
25440000000,251,25440000000,world,3.0,0.5,4.9,-0.63366493634,0.313800231128,-0.313799078478,-0.633662608763
25552000000,252,25552000000,world,3.0,0.5,4.9,-0.617106936786,0.345225817651,-0.345224549568,-0.61710467003
25648000000,253,25648000000,world,3.0,0.5,4.9,-0.603664061314,0.368227562359,-0.368226209786,-0.603661843936
25744000000,254,25744000000,world,3.0,0.5,4.9,-0.589364238159,0.39070657965,-0.390705144507,-0.589362073308
25840000000,255,25840000000,world,3.0,0.5,4.9,-0.574227767025,0.412630958824,-0.412629443149,-0.574225657773
25952000000,256,25952000000,world,3.0,0.5,4.9,-0.555539851664,0.437466924253,-0.43746531735,-0.555537811056
26048000000,257,26048000000,world,3.0,0.5,4.9,-0.53866589895,0.458083928894,-0.458082246261,-0.538663920323
26144000000,258,26144000000,world,3.0,0.5,4.9,-0.521027268457,0.478050648077,-0.478048892102,-0.521025354621
26240000000,259,26240000000,world,3.0,0.5,4.9,-0.505762313724,0.494172357199,-0.494170542006,-0.505760455958
26352000000,260,26352000000,world,3.0,0.5,4.9,-0.480307727778,0.51894732222,-0.518945416024,-0.480305963512
26448000000,261,26448000000,world,3.0,0.5,4.9,-0.463778917102,0.533770505606,-0.533768544961,-0.46377721355
26544000000,262,26544000000,world,3.0,0.5,4.9,-0.439874192404,0.553635738965,-0.553633705351,-0.439872576659
26640000000,263,26640000000,world,3.0,0.5,4.9,-0.418706190129,0.569813094752,-0.569811001715,-0.418704652138
26736000000,264,26752000000,world,3.0,0.5,4.9,-0.393261107236,0.587662775866,-0.587660617264,-0.39325966271
26848000000,265,26848000000,world,3.0,0.5,4.9,-0.370844371858,0.602060037258,-0.602057825772,-0.370843009673
26944000000,266,26944000000,world,3.0,0.5,4.9,-0.351760242442,0.613405712754,-0.613403459593,-0.351758950357
27040000000,267,27040000000,world,3.0,0.5,4.9,-0.324464144172,0.628271323354,-0.628269015589,-0.32446295235
27152000000,268,27152000000,world,3.0,0.5,4.9,-0.300566492172,0.640048139116,-0.640045788092,-0.300565388132
27248000000,269,27248000000,world,3.0,0.5,4.9,-0.276242162861,0.650916357192,-0.650913966247,-0.276241148169
27344000000,270,27344000000,world,3.0,0.5,4.9,-0.251525686499,0.660860549309,-0.660858121838,-0.251524762596
27424000000,271,27440000000,world,3.0,0.5,4.9,-0.226452150032,0.66986659892,-0.669864138367,-0.226451318228
27552000000,272,27552000000,world,3.0,0.5,4.9,-0.192526928131,0.680393429236,-0.680390930016,-0.192526220941
27648000000,273,27648000000,world,3.0,0.5,4.9,-0.166759453207,0.687163096629,-0.687160572543,-0.166758840666
27744000000,274,27744000000,world,3.0,0.5,4.9,-0.14075525038,0.692957283022,-0.692954737652,-0.140754733359
27840000000,275,27840000000,world,3.0,0.5,4.9,-0.114551234623,0.69776776312,-0.69776520008,-0.114550813854
27936000000,276,27952000000,world,3.0,0.5,4.9,-0.0881846045554,0.701587708075,-0.701585131004,-0.0881842806359
28048000000,277,28048000000,world,3.0,0.5,4.9,-0.0572679549291,0.704785228237,-0.704782639421,-0.0572677445726
28144000000,278,28144000000,world,3.0,0.5,4.9,-0.0306776318305,0.706442297366,-0.706439702463,-0.0306775191455
28240000000,279,28240000000,world,3.0,0.5,4.9,-0.00404375946811,0.707096517183,-0.707093919877,-0.00404374461458
28352000000,280,28352000000,world,3.0,0.5,4.9,0.0270336911475,0.706591123738,-0.706588528289,0.0270335918474
28448000000,281,28448000000,world,3.0,0.5,4.9,0.0536322070506,0.705071218367,-0.7050686285,0.0536320100489
28544000000,282,28544000000,world,3.0,0.5,4.9,0.0757410777867,0.703039917599,-0.703037335194,0.0757407995747
28640000000,283,28640000000,world,3.0,0.5,4.9,0.102171245716,0.69968769687,-0.699685126778,0.102170870421
28752000000,284,28752000000,world,3.0,0.5,4.9,0.137179395661,0.693674022873,-0.693671474871,0.137178891774
28848000000,285,28848000000,world,3.0,0.5,4.9,0.163213136601,0.688014032301,-0.688011505089,0.163212537086
28944000000,286,28944000000,world,3.0,0.5,4.9,0.189015183908,0.68137735276,-0.681374849926,0.189014489618
29040000000,287,29040000000,world,3.0,0.5,4.9,0.214548909588,0.673773405528,-0.673770930625,0.214548121507
29152000000,288,29152000000,world,3.0,0.5,4.9,0.243950793625,0.663694091349,-0.663691653469,0.243949897546
29248000000,289,29248000000,world,3.0,0.5,4.9,0.268779387758,0.654033238696,-0.654030836302,0.268778400478
29344000000,290,29344000000,world,3.0,0.5,4.9,0.293226428825,0.64344393543,-0.643441571932,0.293225351746
29440000000,291,29440000000,world,3.0,0.5,4.9,0.313282443925,0.633921088883,-0.633918760366,0.313281293176
29552000000,292,29552000000,world,3.0,0.5,4.9,0.340837624832,0.619541403057,-0.619539127358,0.340836372868
29648000000,293,29648000000,world,3.0,0.5,4.9,0.367734266676,0.603964689129,-0.603962470647,0.367732915915
29744000000,294,29744000000,world,3.0,0.5,4.9,0.386514126537,0.592122172013,-0.592119997031,0.386512706794
29840000000,295,29840000000,world,3.0,0.5,4.9,0.408545374461,0.577141675509,-0.577139555553,0.408543873793
29952000000,296,29952000000,world,3.0,0.5,4.9,0.43701292129,0.55589706172,-0.555895019799,0.437011316054
30048000000,297,30048000000,world,3.0,0.5,4.9,0.45764370449,0.539039958021,-0.53903797802,0.457642023474
30144000000,298,30144000000,world,3.0,0.5,4.9,0.474340970819,0.524406788672,-0.524404862422,0.47433922847
30240000000,299,30240000000,world,3.0,0.5,4.9,0.496927924569,0.503055140502,-0.503053292681,0.496926099255
30352000000,300,30352000000,world,3.0,0.5,4.9,0.518554754126,0.480731529625,-0.480729763803,0.518552849372
30448000000,301,30448000000,world,3.0,0.5,4.9,0.53629612997,0.460856048655,-0.460854355839,0.536294160048
30544000000,302,30544000000,world,3.0,0.5,4.9,0.553276192104,0.440326346989,-0.440324729583,0.553274159811
30640000000,303,30640000000,world,3.0,0.5,4.9,0.569470836023,0.419171568122,-0.419170028422,0.569468744244
30752000000,304,30752000000,world,3.0,0.5,4.9,0.587341298939,0.393741076297,-0.393739630008,0.587339141518
30848000000,305,30848000000,world,3.0,0.5,4.9,0.60175686923,0.371336110468,-0.371334746477,0.601754658857
30944000000,306,30944000000,world,3.0,0.5,4.9,0.615318199245,0.348404004398,-0.348402724641,0.615315939059
31040000000,307,31040000000,world,3.0,0.5,4.9,0.628006037631,0.32497731198,-0.324976118273,0.62800373084
31152000000,308,31152000000,world,3.0,0.5,4.9,0.639802373023,0.301089289209,-0.301088183248,0.639800022902
31248000000,309,31248000000,world,3.0,0.5,4.9,0.652415734384,0.272682133869,-0.272681132253,0.652413337931
31344000000,310,31344000000,world,3.0,0.5,4.9,0.662224753869,0.247911701953,-0.247910791324,0.662222321387
31440000000,311,31440000000,world,3.0,0.5,4.9,0.671093694255,0.22278934026,-0.222788521911,0.671091229195
31552000000,312,31552000000,world,3.0,0.5,4.9,0.680235914291,0.193082721938,-0.193082012707,0.68023341565
31648000000,313,31648000000,world,3.0,0.5,4.9,0.687026630567,0.167320786199,-0.167320171596,0.687024106982
31744000000,314,31744000000,world,3.0,0.5,4.9,0.692842059567,0.141321325702,-0.141320806601,0.69283951462
31840000000,315,31840000000,world,3.0,0.5,4.9,0.69767394584,0.115121248686,-0.115120825823,0.697671383145
31952000000,316,31952000000,world,3.0,0.5,4.9,0.702058984905,0.0843505679705,-0.0843502581341,0.702056406103
32048000000,317,32048000000,world,3.0,0.5,4.9,0.704361059218,0.062268249209,-0.0622680204853,0.70435847196
32144000000,318,32144000000,world,3.0,0.5,4.9,0.706416999043,0.03125476068,-0.0312546458751,0.706414404234
32224000000,319,32240000000,world,3.0,0.5,4.9,0.7070929776,0.00462143168086,-0.00462141470542,0.707090380308
32352000000,320,32352000000,world,3.0,0.5,4.9,0.706612973534,-0.0264564214528,0.0264563242731,0.706610378004
32448000000,321,32448000000,world,3.0,0.5,4.9,0.705114798744,-0.05305617019,0.0530559753042,0.705112208717
32544000000,322,32544000000,world,3.0,0.5,4.9,0.703101560842,-0.0751666930509,0.0751664169487,0.70309897821
32640000000,323,32640000000,world,3.0,0.5,4.9,0.699119102407,-0.105992062215,0.105991672885,0.699116534404
32752000000,324,32752000000,world,3.0,0.5,4.9,0.693785862236,-0.136612642036,0.136612140231,0.693783313823
32848000000,325,32848000000,world,3.0,0.5,4.9,0.688147142225,-0.162650998306,0.162650400857,0.688144614524
32944000000,326,32944000000,world,3.0,0.5,4.9,0.682701601211,-0.1841748091,0.184174132589,0.682699093512
33040000000,327,33040000000,world,3.0,0.5,4.9,0.673948459767,-0.213998388264,0.213997602206,0.673945984221
33152000000,328,33152000000,world,3.0,0.5,4.9,0.665408653445,-0.239234530374,0.239233651618,0.665406209267
33248000000,329,33248000000,world,3.0,0.5,4.9,0.65425260396,-0.268244975375,0.268243990058,0.65425020076
33344000000,330,33344000000,world,3.0,0.5,4.9,0.645508707971,-0.28865263646,0.288651576182,0.64550633689
33440000000,331,33440000000,world,3.0,0.5,4.9,0.632200191237,-0.316740832231,0.316739668779,0.63219786904
33552000000,332,33552000000,world,3.0,0.5,4.9,0.617670188109,-0.344217046824,0.344215782447,0.617667919284
33648000000,333,33648000000,world,3.0,0.5,4.9,0.604264913838,-0.367240725556,0.367239376607,0.604262694253
33744000000,334,33744000000,world,3.0,0.5,4.9,0.592437743175,-0.386030254079,0.386028836113,0.592435567034
33840000000,335,33840000000,world,3.0,0.5,4.9,0.574901210918,-0.411692159614,0.411690647387,0.574899099192
33952000000,336,33952000000,world,3.0,0.5,4.9,0.556253900751,-0.43655862665,0.436557023083,0.55625185752
34048000000,337,34048000000,world,3.0,0.5,4.9,0.539413657318,-0.45720317464,0.457201495242,0.539411675945
34144000000,338,34144000000,world,3.0,0.5,4.9,0.521807674607,-0.477198687471,0.477196934625,0.521805757904
34240000000,339,34240000000,world,3.0,0.5,4.9,0.503460945667,-0.496516779969,0.496514956164,0.503459096355
34352000000,340,34352000000,world,3.0,0.5,4.9,0.481155010616,-0.518161839932,0.518159936621,0.481153243238
34448000000,341,34448000000,world,3.0,0.5,4.9,0.464650442059,-0.533012010462,0.533010052603,0.464648735306
34544000000,342,34544000000,world,3.0,0.5,4.9,0.440778207686,-0.552916275969,0.552914244998,0.440776588621
34640000000,343,34640000000,world,3.0,0.5,4.9,0.419636666346,-0.569128197211,0.56912610669,0.419635124937
34752000000,344,34752000000,world,3.0,0.5,4.9,0.394220782562,-0.587019430001,0.587017273762,0.394219334511
34848000000,345,34848000000,world,3.0,0.5,4.9,0.371827601236,-0.601453299568,0.601451090311,0.371826235439
34944000000,346,34944000000,world,3.0,0.5,4.9,0.348906581959,-0.615033359801,0.615031100661,0.348905300356
35040000000,347,35040000000,world,3.0,0.5,4.9,0.325490262887,-0.627740332756,0.627738026941,0.325489067297
35152000000,348,35152000000,world,3.0,0.5,4.9,0.301611885289,-0.639556179905,0.639553830689,0.301610777408
35248000000,349,35248000000,world,3.0,0.5,4.9,0.273215044112,-0.652192744726,0.652190349093,0.273214040539
35344000000,350,35344000000,world,3.0,0.5,4.9,0.248452634094,-0.662021997531,0.662019565793,0.248451721478
35440000000,351,35440000000,world,3.0,0.5,4.9,0.223337526404,-0.670911459063,0.670908994672,0.223336706041
35552000000,352,35552000000,world,3.0,0.5,4.9,0.193638386876,-0.680077945335,0.680075447274,0.193637675604
35648000000,353,35648000000,world,3.0,0.5,4.9,0.167882007515,-0.686889705961,0.686887182879,0.167881390852
35744000000,354,35744000000,world,3.0,0.5,4.9,0.141887306701,-0.692726373686,0.692723829164,0.14188678552
35840000000,355,35840000000,world,3.0,0.5,4.9,0.115691185913,-0.697579662909,0.697577100561,0.115690760957
35952000000,356,35952000000,world,3.0,0.5,4.9,0.0893308325671,-0.701442684013,0.701440107475,0.0893305044372
36048000000,357,36048000000,world,3.0,0.5,4.9,0.0584194487369,-0.704690715571,0.704688127102,0.0584192341507
36144000000,358,36144000000,world,3.0,0.5,4.9,0.031831868669,-0.706391229235,0.70638863452,0.0318317517442
36240000000,359,36240000000,world,3.0,0.5,4.9,0.00519910080911,-0.707088966081,0.707086368803,0.00519908171178
36352000000,360,36352000000,world,3.0,0.5,4.9,-0.0258791341002,-0.706634351713,0.706631756105,-0.025879039041
36448000000,361,36448000000,world,3.0,0.5,4.9,-0.0480507587394,-0.705473572281,0.705470980937,-0.0480505822394
36544000000,362,36544000000,world,3.0,0.5,4.9,-0.0790065621902,-0.702680439271,0.702677858186,-0.0790062719834
36640000000,363,36640000000,world,3.0,0.5,4.9,-0.105420870555,-0.699205460973,0.699202892652,-0.105420483324
36752000000,364,36752000000,world,3.0,0.5,4.9,-0.136045797232,-0.693897238543,0.693894689721,-0.136045297509
36848000000,365,36848000000,world,3.0,0.5,4.9,-0.162088751453,-0.688279792857,0.688277264669,-0.162088156069
36944000000,366,36944000000,world,3.0,0.5,4.9,-0.187901608193,-0.681685280933,0.681682776968,-0.187900917993
37040000000,367,37040000000,world,3.0,0.5,4.9,-0.213447724111,-0.674123064191,0.674120588003,-0.213446940075
37152000000,368,37152000000,world,3.0,0.5,4.9,-0.242866037803,-0.664091804109,0.664089364768,-0.242865145708
37248000000,369,37248000000,world,3.0,0.5,4.9,-0.267710383957,-0.654471532555,0.654469128551,-0.267709400603
37344000000,370,37344000000,world,3.0,0.5,4.9,-0.288125181694,-0.645744311842,0.645741939895,-0.288124123353
37440000000,371,37440000000,world,3.0,0.5,4.9,-0.316224240692,-0.63245874664,0.632456423493,-0.316223079138
37552000000,372,37552000000,world,3.0,0.5,4.9,-0.34371231663,-0.617951195484,0.617948925626,-0.343711054106
37648000000,373,37648000000,world,3.0,0.5,4.9,-0.366746939326,-0.604564735241,0.604562514555,-0.366745592192
37744000000,374,37744000000,world,3.0,0.5,4.9,-0.389260936464,-0.590320048741,0.590317880379,-0.389259506631
37840000000,375,37840000000,world,3.0,0.5,4.9,-0.411222347687,-0.575237357415,0.575235244454,-0.411220837186
37952000000,376,37952000000,world,3.0,0.5,4.9,-0.436104040636,-0.55661036852,0.556608323979,-0.436102438739
38048000000,377,38048000000,world,3.0,0.5,4.9,-0.456762339637,-0.539786996594,0.539785013849,-0.456760661859
38144000000,378,38144000000,world,3.0,0.5,4.9,-0.476772229278,-0.522197355405,0.52219543727,-0.476770477999
38240000000,379,38240000000,world,3.0,0.5,4.9,-0.496105303977,-0.503866414805,0.503864564004,-0.496103481684
38352000000,380,38352000000,world,3.0,0.5,4.9,-0.517768579899,-0.481578170468,0.481576401536,-0.517766678033
38448000000,381,38448000000,world,3.0,0.5,4.9,-0.53554240722,-0.461731704209,0.461730008177,-0.535540440066
38544000000,382,38544000000,world,3.0,0.5,4.9,-0.549774226816,-0.44469105695,0.444689423512,-0.549772207386
38640000000,383,38640000000,world,3.0,0.5,4.9,-0.568785178544,-0.420101484491,0.420099941375,-0.568783089283
38752000000,384,38752000000,world,3.0,0.5,4.9,-0.586697169267,-0.394700225711,0.394698775899,-0.586695014212
38848000000,385,38848000000,world,3.0,0.5,4.9,-0.601149328478,-0.372318843834,0.372317476233,-0.601147120337
38944000000,386,38944000000,world,3.0,0.5,4.9,-0.614748109863,-0.349408926649,0.349407643201,-0.614745851772
39040000000,387,39040000000,world,3.0,0.5,4.9,-0.627474208906,-0.326002996551,0.326001799078,-0.627471904069
39152000000,388,39152000000,world,3.0,0.5,4.9,-0.641194319491,-0.298113537524,0.298112442494,-0.641191964257
39248000000,389,39248000000,world,3.0,0.5,4.9,-0.651969319774,-0.273747772002,0.273746766472,-0.651966924961
39344000000,390,39344000000,world,3.0,0.5,4.9,-0.660242101464,-0.253144630709,0.253143700858,-0.660239676264
39440000000,391,39440000000,world,3.0,0.5,4.9,-0.670728776083,-0.223885563486,0.22388474111,-0.670726312363
39552000000,392,39552000000,world,3.0,0.5,4.9,-0.678686601613,-0.198459903742,0.198459174759,-0.678684108663
39648000000,393,39648000000,world,3.0,0.5,4.9,-0.686752322902,-0.168443116782,0.168442498057,-0.686749800324
39744000000,394,39744000000,world,3.0,0.5,4.9,-0.692610225457,-0.142453192999,0.14245266974,-0.692607681362
39840000000,395,39840000000,world,3.0,0.5,4.9,-0.696741055982,-0.120638872308,0.120638429178,-0.696738496714
39952000000,396,39952000000,world,3.0,0.5,4.9,-0.701920224764,-0.0854975711338,0.0854972570843,-0.701917646472
40048000000,397,40048000000,world,3.0,0.5,4.9,-0.704642753721,-0.0589951373463,0.0589949206455,-0.704640165429
40144000000,398,40144000000,world,3.0,0.5,4.9,-0.706364987957,-0.0324089554124,0.0324088363679,-0.706362393338
40240000000,399,40240000000,world,3.0,0.5,4.9,-0.707084482627,-0.00577676646731,0.0057767452481,-0.707081885365
40352000000,400,40352000000,world,3.0,0.5,4.9,-0.706800216353,0.0208636230432,-0.020863546407,-0.706797620135
40448000000,401,40448000000,world,3.0,0.5,4.9,-0.705200547618,0.051903990619,-0.0519037999653,-0.705197957276
40544000000,402,40544000000,world,3.0,0.5,4.9,-0.702744750422,0.0784324700461,-0.0784321819481,-0.702742169101
40640000000,403,40640000000,world,3.0,0.5,4.9,-0.699291352866,0.104849608534,-0.104849223401,-0.69928878423
40752000000,404,40752000000,world,3.0,0.5,4.9,-0.694845257314,0.131117904919,-0.131117423297,-0.69484270501
40848000000,405,40848000000,world,3.0,0.5,4.9,-0.688411984108,0.161526396416,-0.161525803098,-0.688409455434
40944000000,406,40944000000,world,3.0,0.5,4.9,-0.681838562602,0.187344632032,-0.187343943878,-0.681836058074
41040000000,407,41040000000,world,3.0,0.5,4.9,-0.674297218683,0.212896917496,-0.212896135484,-0.674294741855
41152000000,408,41152000000,world,3.0,0.5,4.9,-0.6642899957,0.242323416566,-0.242322526464,-0.664287555631
41248000000,409,41248000000,world,3.0,0.5,4.9,-0.654690024333,0.26717561386,-0.267174632471,-0.654687619527
41344000000,410,41344000000,world,3.0,0.5,4.9,-0.644160669996,0.291648534769,-0.291647463486,-0.644158303866
41440000000,411,41440000000,world,3.0,0.5,4.9,-0.632716879919,0.315707438095,-0.315706278439,-0.632714555824
41552000000,412,41552000000,world,3.0,0.5,4.9,-0.618231790418,0.34320735703,-0.343206096362,-0.61822951953
41648000000,413,41648000000,world,3.0,0.5,4.9,-0.607152248964,0.362447214337,-0.362445882997,-0.607150018773
41744000000,414,41744000000,world,3.0,0.5,4.9,-0.590637864554,0.388778535361,-0.388777107301,-0.590635695024
41840000000,415,41840000000,world,3.0,0.5,4.9,-0.575573119979,0.410752261297,-0.410750752522,-0.575571005785
41952000000,416,41952000000,world,3.0,0.5,4.9,-0.556966464788,0.435649163552,-0.435647563326,-0.55696441894
42048000000,417,42048000000,world,3.0,0.5,4.9,-0.540159975597,0.456321199776,-0.456319523618,-0.540157991482
42144000000,418,42144000000,world,3.0,0.5,4.9,-0.522586687671,0.476345452872,-0.476343703161,-0.522584768106
42240000000,419,42240000000,world,3.0,0.5,4.9,-0.504271547646,0.495693496868,-0.495691676087,-0.504269695357
42352000000,420,42352000000,world,3.0,0.5,4.9,-0.4820010089,0.517374974291,-0.51737307387,-0.481999238414
42448000000,421,42448000000,world,3.0,0.5,4.9,-0.46216906987,0.535165009561,-0.535163043794,-0.462167372231
42544000000,422,42544000000,world,3.0,0.5,4.9,-0.441681046209,0.552195336835,-0.552193308512,-0.441679423827
42640000000,423,42640000000,world,3.0,0.5,4.9,-0.420566022247,0.56844178025,-0.568439692251,-0.420564477424
42736000000,424,42752000000,world,3.0,0.5,4.9,-0.395179405424,0.586374516952,-0.586372363082,-0.395177953852
42848000000,425,42848000000,world,3.0,0.5,4.9,-0.372809837934,0.60084495616,-0.600842749137,-0.372808468529
42944000000,426,42944000000,world,3.0,0.5,4.9,-0.353762886463,0.612252935284,-0.612250686358,-0.353761587022
43024000000,427,43040000000,world,3.0,0.5,4.9,-0.330447860671,0.625144821606,-0.625142525325,-0.330446646871
43152000000,428,43152000000,world,3.0,0.5,4.9,-0.298637271769,0.640950556995,-0.640948202657,-0.298636174815
43248000000,429,43248000000,world,3.0,0.5,4.9,-0.274280317183,0.651745459676,-0.651743065686,-0.274279309697
43344000000,430,43344000000,world,3.0,0.5,4.9,-0.249534000538,0.661615159423,-0.661612729179,-0.24953308395
43440000000,431,43440000000,world,3.0,0.5,4.9,-0.224433451139,0.670545645436,-0.670543182388,-0.22443262675
43552000000,432,43552000000,world,3.0,0.5,4.9,-0.194749328658,0.679760645808,-0.679758148913,-0.194748613305
43648000000,433,43648000000,world,3.0,0.5,4.9,-0.169004113624,0.686614481482,-0.686611959411,-0.169003492839
43744000000,434,43744000000,world,3.0,0.5,4.9,-0.14301898422,0.692493614956,-0.69249107129,-0.143018458883
43840000000,435,43840000000,world,3.0,0.5,4.9,-0.116830828339,0.697389700348,-0.697387138698,-0.116830399196
43952000000,436,43952000000,world,3.0,0.5,4.9,-0.0904768220895,0.701295787287,-0.701293211289,-0.0904764897502
44048000000,437,44048000000,world,3.0,0.5,4.9,-0.0595707865804,0.70459432157,-0.704591733455,-0.0595705677651
44144000000,438,44144000000,world,3.0,0.5,4.9,-0.032986020525,0.706338275228,-0.706335680708,-0.0329858993608
44224000000,439,44240000000,world,3.0,0.5,4.9,-0.0107946748407,0.707025679589,-0.707023082543,-0.0107946351897
44352000000,440,44352000000,world,3.0,0.5,4.9,0.020286184586,0.706817025345,-0.706814429066,0.0202861100709
44448000000,441,44448000000,world,3.0,0.5,4.9,0.0513278486775,0.705242716058,-0.705240125561,0.0513276601402
44544000000,442,44544000000,world,3.0,0.5,4.9,0.0778583255536,0.702808592537,-0.702806010982,0.0778580395646
44640000000,443,44640000000,world,3.0,0.5,4.9,0.104278276533,0.699376778029,-0.699374209079,0.104277893498
44752000000,444,44752000000,world,3.0,0.5,4.9,0.130550196459,0.694952144257,-0.69494959156,0.130549716922
44848000000,445,44848000000,world,3.0,0.5,4.9,0.160963933572,0.68854371589,-0.688541186732,0.160963342319
44944000000,446,44944000000,world,3.0,0.5,4.9,0.186787530831,0.68199138919,-0.6819888841,0.186786844723
45040000000,447,45040000000,world,3.0,0.5,4.9,0.212345968787,0.674470923126,-0.674468445661,0.212345188798
45152000000,448,45152000000,world,3.0,0.5,4.9,0.237602965267,0.665992993581,-0.665990547256,0.237602092505
45248000000,449,45248000000,world,3.0,0.5,4.9,0.266640665441,0.65490807915,-0.654905673543,0.266639686017
45344000000,450,45344000000,world,3.0,0.5,4.9,0.291122180304,0.644398721862,-0.644396354858,0.291121110954
45440000000,451,45440000000,world,3.0,0.5,4.9,0.315190424784,0.632974590901,-0.63297226586,0.315189267027
45552000000,452,45552000000,world,3.0,0.5,4.9,0.342702168363,0.618511972723,-0.618509700806,0.34270090955
45648000000,453,45648000000,world,3.0,0.5,4.9,0.36575863286,0.605163167328,-0.605160944444,0.365757289356
45744000000,454,45744000000,world,3.0,0.5,4.9,0.384577092101,0.593382083344,-0.593379903734,0.384575679473
45840000000,455,45840000000,world,3.0,0.5,4.9,0.406657176512,0.578473661798,-0.57847153695,0.406655682779
45952000000,456,45952000000,world,3.0,0.5,4.9,0.431685499944,0.560044164098,-0.560042106945,0.431683914278
46048000000,457,46048000000,world,3.0,0.5,4.9,0.455879755352,0.54053259408,-0.540530608597,0.455878080815
46144000000,458,46144000000,world,3.0,0.5,4.9,0.472624751632,0.525954067146,-0.525952135212,0.472623015588
46240000000,459,46240000000,world,3.0,0.5,4.9,0.495281358917,0.50467634392,-0.504674490143,0.49527953965
46352000000,460,46352000000,world,3.0,0.5,4.9,0.516981023369,0.482423525627,-0.48242175359,0.516979124395
46448000000,461,46448000000,world,3.0,0.5,4.9,0.534787254715,0.462606127064,-0.46260442782,0.534785290335
46544000000,462,46544000000,world,3.0,0.5,4.9,0.551834314317,0.442132023432,-0.442130399394,0.55183228732
46640000000,463,46640000000,world,3.0,0.5,4.9,0.56809800256,0.421030279302,-0.421028732775,0.568095915824
46752000000,464,46752000000,world,3.0,0.5,4.9,0.583555231884,0.399330850227,-0.399329383405,0.58355308837
46848000000,465,46848000000,world,3.0,0.5,4.9,0.600540182818,0.373300583208,-0.373299212001,0.600537976915
46944000000,466,46944000000,world,3.0,0.5,4.9,0.611963718841,0.35426295802,-0.354261656742,0.611961470976
47040000000,467,47040000000,world,3.0,0.5,4.9,0.624874648435,0.330958472238,-0.330957256562,0.624872353146
47152000000,468,47152000000,world,3.0,0.5,4.9,0.640706366708,0.299160806694,-0.299159707817,0.640704013267
47248000000,469,47248000000,world,3.0,0.5,4.9,0.651521164582,0.274812679301,-0.27481166986,0.651518771415
47344000000,470,47344000000,world,3.0,0.5,4.9,0.659827599335,0.254223082663,-0.254222148851,0.659825175657
47440000000,471,47440000000,world,3.0,0.5,4.9,0.668935994625,0.229186543449,-0.229185701601,0.66893353749
47552000000,472,47552000000,world,3.0,0.5,4.9,0.67960131545,0.195304604762,-0.195303887369,0.67959881914
47648000000,473,47648000000,world,3.0,0.5,4.9,0.685397798244,0.173872639494,-0.173872000825,0.685395280642
47744000000,474,47744000000,world,3.0,0.5,4.9,0.692376542263,0.143584679985,-0.14358415257,0.692373999027
47840000000,475,47840000000,world,3.0,0.5,4.9,0.696543010364,0.121777137904,-0.121776690592,0.696540451823
47952000000,476,47952000000,world,3.0,0.5,4.9,0.701779590685,0.0866443460416,-0.0866440277797,0.701777012909
48048000000,477,48048000000,world,3.0,0.5,4.9,0.704153814569,0.0645696680377,-0.0645694308605,0.704151228072
48144000000,478,48144000000,world,3.0,0.5,4.9,0.706311091066,0.0335630636216,-0.0335629403378,0.706308496645
48240000000,479,48240000000,world,3.0,0.5,4.9,0.707016624764,0.0113722869287,-0.011372245156,0.707014027752
48352000000,480,48352000000,world,3.0,0.5,4.9,0.706695656408,-0.0241471699481,0.0241470812507,0.706693060575
48448000000,481,48448000000,world,3.0,0.5,4.9,0.705284413796,-0.0507516724782,0.0507514860572,0.705281823146
48528000000,482,48544000000,world,3.0,0.5,4.9,0.702871965576,-0.0772841290959,0.077283845216,0.702869383788
48640000000,483,48640000000,world,3.0,0.5,4.9,0.699461736405,-0.103706874933,0.103706493997,0.699459167143
48752000000,484,48752000000,world,3.0,0.5,4.9,0.69422858839,-0.134344719524,0.134344226049,0.694226038351
48848000000,485,48848000000,world,3.0,0.5,4.9,0.688674988116,-0.160401363294,0.160400774108,0.688672458476
48944000000,486,48944000000,world,3.0,0.5,4.9,0.682143760593,-0.186230304961,0.1862296209,0.682141254944
49040000000,487,49040000000,world,3.0,0.5,4.9,0.674644177405,-0.211794878351,0.211794100386,0.674641699303
49152000000,488,49152000000,world,3.0,0.5,4.9,0.664685048642,-0.241237689249,0.241236803135,0.664682607122
49248000000,489,49248000000,world,3.0,0.5,4.9,0.65512569686,-0.266105539057,0.266104561599,0.655123290453
49344000000,490,49344000000,world,3.0,0.5,4.9,0.646448536879,-0.286541664979,0.286540612455,0.646446162346
49440000000,491,49440000000,world,3.0,0.5,4.9,0.633231879416,-0.314673201105,0.314672045248,0.63322955343
49552000000,492,49552000000,world,3.0,0.5,4.9,0.620928493717,-0.338304067804,0.338302825146,0.620926212924
49648000000,493,49648000000,world,3.0,0.5,4.9,0.605461777613,-0.365264113283,0.365262771596,0.605459553632
49744000000,494,49744000000,world,3.0,0.5,4.9,0.591272313333,-0.387812955028,0.387811530515,0.591270141473
49840000000,495,49840000000,world,3.0,0.5,4.9,0.576243492414,-0.409811266381,0.409809761063,0.576241375758
49952000000,496,49952000000,world,3.0,0.5,4.9,0.557677541875,-0.434738537388,0.434736940508,0.557675493415
50048000000,497,50048000000,world,3.0,0.5,4.9,0.540904851794,-0.455438006658,0.455436333744,0.540902864943
50144000000,498,50144000000,world,3.0,0.5,4.9,0.523364305568,-0.475490946559,0.475489199987,0.523362383147
50224000000,499,50240000000,world,3.0,0.5,4.9,0.505080803356,-0.494868890398,0.494867072647,0.505078948094
50352000000,500,50352000000,world,3.0,0.5,4.9,0.48284572037,-0.516586727397,0.516584829872,0.482843946782
50448000000,501,50448000000,world,3.0,0.5,4.9,0.466389768174,-0.531490753208,0.531488800937,0.466388055032
50544000000,502,50544000000,world,3.0,0.5,4.9,0.446037160112,-0.54868268462,0.548680669199,0.446035521729
50640000000,503,50640000000,world,3.0,0.5,4.9,0.421494255349,-0.567753845703,0.56775176023,0.421492707117
50752000000,504,50752000000,world,3.0,0.5,4.9,0.39980746154,-0.583228797557,0.583226655242,0.399805992968
50848000000,505,50848000000,world,3.0,0.5,4.9,0.373791079329,-0.600235008656,0.600232803874,0.37378970632
50944000000,506,50944000000,world,3.0,0.5,4.9,0.350914560135,-0.613889898995,0.613887644055,0.350913271156
51040000000,507,51040000000,world,3.0,0.5,4.9,0.331468862912,-0.624604058202,0.624601763908,0.331467645361
51152000000,508,51152000000,world,3.0,0.5,4.9,0.299684141949,-0.640461748793,0.64045939625,0.29968304115
51248000000,509,51248000000,world,3.0,0.5,4.9,0.279429489538,-0.649554460364,0.649552074422,0.279428463138
51344000000,510,51344000000,world,3.0,0.5,4.9,0.250614700794,-0.66120655498,0.661204126237,0.250613780236
51440000000,511,51440000000,world,3.0,0.5,4.9,0.225528776696,-0.670178041631,0.670175579934,0.225527948284
51552000000,512,51552000000,world,3.0,0.5,4.9,0.195859750512,-0.679441531503,0.67943903578,0.195859031081
51648000000,513,51648000000,world,3.0,0.5,4.9,0.170125768538,-0.686337423926,0.686334902873,0.170125143632
51744000000,514,51744000000,world,3.0,0.5,4.9,0.144150279917,-0.692259007455,0.69225646465,0.144149750424
51840000000,515,51840000000,world,3.0,0.5,4.9,0.122346148975,-0.696443290178,0.696440732003,0.122345699573
51952000000,516,51952000000,world,3.0,0.5,4.9,0.0872176469429,-0.701708571035,0.70170599352,0.0872173265752
52048000000,517,52048000000,world,3.0,0.5,4.9,0.060721965386,-0.704496046492,0.704493458738,0.0607217423421
52144000000,518,52144000000,world,3.0,0.5,4.9,0.0341400843171,-0.706283435488,0.706280841169,0.0341399589138
52240000000,519,52240000000,world,3.0,0.5,4.9,0.00750973876609,-0.707068200689,0.707065603488,0.00750971118133
52352000000,520,52352000000,world,3.0,0.5,4.9,-0.023569815817,-0.70671514798,0.706712552075,-0.0235697292404
52448000000,521,52448000000,world,3.0,0.5,4.9,-0.0501754624055,-0.705325640804,0.705323050003,-0.0501752781011
52544000000,522,52544000000,world,3.0,0.5,4.9,-0.0767098810563,-0.702934869494,0.702932287475,-0.0767095992856
52640000000,523,52640000000,world,3.0,0.5,4.9,-0.0987403067439,-0.700180111419,0.700177539519,-0.0987399440511
52752000000,524,52752000000,world,3.0,0.5,4.9,-0.133777513784,-0.694338111735,0.694335561294,-0.133777022393
52848000000,525,52848000000,world,3.0,0.5,4.9,-0.155509919031,-0.689795985553,0.689793451796,-0.155509347812
52944000000,526,52944000000,world,3.0,0.5,4.9,-0.181384561223,-0.683448225949,0.683445715508,-0.181383894961
53040000000,527,53040000000,world,3.0,0.5,4.9,-0.207001714045,-0.676130258889,0.676127775328,-0.207000953686
53152000000,528,53152000000,world,3.0,0.5,4.9,-0.240694583894,-0.66488190973,0.664879467487,-0.240693699776
53248000000,529,53248000000,world,3.0,0.5,4.9,-0.265570235066,-0.655342877317,0.655340470112,-0.265569259574
53344000000,530,53344000000,world,3.0,0.5,4.9,-0.290068888811,-0.644873535157,0.644871166409,-0.290067823331
53440000000,531,53440000000,world,3.0,0.5,4.9,-0.314155767403,-0.633488745291,0.633486418361,-0.314154613446
53552000000,532,53552000000,world,3.0,0.5,4.9,-0.337796677659,-0.621204669304,0.621202387496,-0.337795436865
53648000000,533,53648000000,world,3.0,0.5,4.9,-0.360958059485,-0.60803874539,0.608036511943,-0.360956733614
53744000000,534,53744000000,world,3.0,0.5,4.9,-0.387329776442,-0.591588945877,0.591586772853,-0.387328353703
53840000000,535,53840000000,world,3.0,0.5,4.9,-0.405711447778,-0.579137339277,0.57913521199,-0.405709957519
53952000000,536,53952000000,world,3.0,0.5,4.9,-0.434282788916,-0.558032522219,0.558030472454,-0.43428119371
54048000000,537,54048000000,world,3.0,0.5,4.9,-0.454995953989,-0.54127674849,0.541274760273,-0.454994282699
54144000000,538,54144000000,world,3.0,0.5,4.9,-0.475063217222,-0.523752590681,0.523750666834,-0.475061472221
54240000000,539,54240000000,world,3.0,0.5,4.9,-0.494456091588,-0.505484925684,0.505483068938,-0.494454275353
54336000000,540,54352000000,world,3.0,0.5,4.9,-0.513147047406,-0.486499685859,0.48649789885,-0.513145162515
54448000000,541,54448000000,world,3.0,0.5,4.9,-0.534030674472,-0.463479314884,0.463477612432,-0.534028712872
54544000000,542,54544000000,world,3.0,0.5,4.9,-0.551111164586,-0.443033092298,0.443031464949,-0.551109140246
54640000000,543,54640000000,world,3.0,0.5,4.9,-0.567409309908,-0.421957950076,0.421956400141,-0.567407225701
54752000000,544,54752000000,world,3.0,0.5,4.9,-0.585404212676,-0.396615360751,0.396613903904,-0.58540206237
54848000000,545,54848000000,world,3.0,0.5,4.9,-0.599929433878,-0.37428132597,0.37427995116,-0.599927230218
54944000000,546,54944000000,world,3.0,0.5,4.9,-0.61360300899,-0.351415969986,0.351414679166,-0.613600755104
55040000000,547,55040000000,world,3.0,0.5,4.9,-0.626405527317,-0.328051751937,0.328050546938,-0.626403226405
55152000000,548,55152000000,world,3.0,0.5,4.9,-0.640216703412,-0.300207277186,0.300206174465,-0.640214351769
55248000000,549,55248000000,world,3.0,0.5,4.9,-0.651071270003,-0.275876852925,0.275875839574,-0.651068878489
55344000000,550,55344000000,world,3.0,0.5,4.9,-0.661001590724,-0.251154800199,0.251153877658,-0.660999162734
55440000000,551,55440000000,world,3.0,0.5,4.9,-0.669993568719,-0.226076213869,0.226075383447,-0.6699911077
55552000000,552,55552000000,world,3.0,0.5,4.9,-0.679281294075,-0.19641476554,0.196414044069,-0.67927879894
55648000000,553,55648000000,world,3.0,0.5,4.9,-0.686198207976,-0.17068642586,0.170685798895,-0.686195687434
55744000000,554,55744000000,world,3.0,0.5,4.9,-0.69214101061,-0.144715783638,0.144715252068,-0.692138468239
55840000000,555,55840000000,world,3.0,0.5,4.9,-0.697101265711,-0.118539706202,0.118539270782,-0.69709870512
55952000000,556,55952000000,world,3.0,0.5,4.9,-0.701637083042,-0.0877908896323,0.0877905671589,-0.70163450579
56048000000,557,56048000000,world,3.0,0.5,4.9,-0.70444620363,-0.0612974941891,0.0612972690312,-0.704443616059
56144000000,558,56144000000,world,3.0,0.5,4.9,-0.706255308514,-0.0347170822264,0.0347169547037,-0.706252714298
56240000000,559,56240000000,world,3.0,0.5,4.9,-0.707061829531,-0.00808738668859,0.00808735698201,-0.707059232352
56352000000,560,56352000000,world,3.0,0.5,4.9,-0.706864621761,0.0185537895182,-0.0185537213665,-0.706862025307
56448000000,561,56448000000,world,3.0,0.5,4.9,-0.705663965156,0.0451686271902,-0.0451684612768,-0.705661373113
56544000000,562,56544000000,world,3.0,0.5,4.9,-0.702997304251,0.0761355818179,-0.0761353021568,-0.702994722002
56640000000,563,56640000000,world,3.0,0.5,4.9,-0.700260545196,0.0981682506963,-0.0981678901048,-0.700257973
56752000000,564,56752000000,world,3.0,0.5,4.9,-0.694447171656,0.133210218757,-0.13320972945,-0.694444620814
56848000000,565,56848000000,world,3.0,0.5,4.9,-0.688936153546,0.159275901944,-0.159275316892,-0.688933622947
56944000000,566,56944000000,world,3.0,0.5,4.9,-0.683596182826,0.180826146971,-0.180825482761,-0.683593671841
57040000000,567,57040000000,world,3.0,0.5,4.9,-0.676299146542,0.206449269772,-0.206448511443,-0.676296662361
57136000000,568,57152000000,world,3.0,0.5,4.9,-0.666573333167,0.235969972905,-0.235969106141,-0.666570884711
57248000000,569,57248000000,world,3.0,0.5,4.9,-0.655559620376,0.265034753824,-0.265033780299,-0.655557212376
57344000000,570,57344000000,world,3.0,0.5,4.9,-0.645110296269,0.289541952487,-0.289540888942,-0.645107926651
57440000000,571,57440000000,world,3.0,0.5,4.9,-0.633745188354,0.313638124022,-0.313636971967,-0.633742860483
57552000000,572,57552000000,world,3.0,0.5,4.9,-0.619350042002,0.341185231326,-0.341183978085,-0.619347767006
57648000000,573,57648000000,world,3.0,0.5,4.9,-0.606057785667,0.364274343091,-0.36427300504,-0.606055559497
57744000000,574,57744000000,world,3.0,0.5,4.9,-0.591905183575,0.386846339339,-0.386844918376,-0.59190300939
57840000000,575,57840000000,world,3.0,0.5,4.9,-0.579468598324,0.405238177075,-0.405236688555,-0.579466469821
57952000000,576,57952000000,world,3.0,0.5,4.9,-0.558387130113,0.43382675059,-0.433825157058,-0.558385079046
58048000000,577,58048000000,world,3.0,0.5,4.9,-0.54164828392,0.454553597642,-0.454551927976,-0.541646294338
58144000000,578,58144000000,world,3.0,0.5,4.9,-0.524140526224,0.474635170813,-0.474633427384,-0.524138600951
58240000000,579,58240000000,world,3.0,0.5,4.9,-0.505888710635,0.494042962762,-0.494041148044,-0.505886852406
58352000000,580,58352000000,world,3.0,0.5,4.9,-0.483689142772,0.515797101356,-0.515795206731,-0.483687366086
