%time,field.header.seq,field.header.stamp,field.header.frame_id,field.pose.position.x,field.pose.position.y,field.pose.position.z,field.pose.orientation.x,field.pose.orientation.y,field.pose.orientation.z,field.pose.orientation.w
18448000000,158,18448000000,world,1.0,-0.5,4.9,-0.706515363251,-0.0289461239714,-0.0289460176465,0.70651276808
18544000000,159,18544000000,world,1.0,-0.5,4.9,-0.707104304285,-0.00231072817847,-0.0023107196907,0.70710170695
18656000000,160,18656000000,world,1.0,-0.5,4.9,-0.706522744797,0.0287653904315,0.0287652847705,0.706520149599
18752000000,161,18752000000,world,1.0,-0.5,4.9,-0.704937653828,0.0553601013193,0.0553598979707,0.704935064452
18848000000,162,18848000000,world,1.0,-0.5,4.9,-0.702852172646,0.0774639271482,0.0774636426078,0.702849590931
18928000000,163,18944000000,world,1.0,-0.5,4.9,-0.698769002573,0.108276117616,0.108275719897,0.698766435856
19056000000,164,19056000000,world,1.0,-0.5,4.9,-0.693335727199,0.138879105673,0.138878595543,0.693333180439
19152000000,165,19152000000,world,1.0,-0.5,4.9,-0.687611947667,0.164898896381,0.164898290674,0.687609421932
19248000000,166,19248000000,world,1.0,-0.5,4.9,-0.680912049957,0.19068460039,0.190683899968,0.680909548832
19344000000,167,19344000000,world,1.0,-0.5,4.9,-0.673245545089,0.216199612906,0.216198818762,0.673243072124
19456000000,168,19456000000,world,1.0,-0.5,4.9,-0.663094200259,0.245576705299,0.245575803247,0.663091764582
19552000000,169,19552000000,world,1.0,-0.5,4.9,-0.65337252435,0.270381547127,0.270380553962,0.653370124383
19648000000,170,19648000000,world,1.0,-0.5,4.9,-0.642723335764,0.2948025615,0.294801478632,0.642720974913
19744000000,171,19744000000,world,1.0,-0.5,4.9,-0.631161751844,0.318805080907,0.318803909872,0.631159433462
19856000000,172,19856000000,world,1.0,-0.5,4.9,-0.616542037954,0.346233666818,0.346232395033,0.616539773273
19952000000,173,19952000000,world,1.0,-0.5,4.9,-0.603061597168,0.369213416094,0.3692120599,0.603059382003
20048000000,174,20048000000,world,1.0,-0.5,4.9,-0.588725063945,0.391669038457,0.391667599779,0.588722901441
20144000000,175,20144000000,world,1.0,-0.5,4.9,-0.576138640379,0.409958660921,0.409957155062,0.576136524108
20256000000,176,20256000000,world,1.0,-0.5,4.9,-0.554824319436,0.438374053937,0.438372443702,0.554822281456
20352000000,177,20352000000,world,1.0,-0.5,4.9,-0.537916702488,0.458963460187,0.458961774323,0.537914726614
20448000000,178,20448000000,world,1.0,-0.5,4.9,-0.520245471304,0.478901332416,0.478899573316,0.52024356034
20544000000,179,20544000000,world,1.0,-0.5,4.9,-0.501835711559,0.498159367277,0.498157537439,0.501833868217
20656000000,180,20656000000,world,1.0,-0.5,4.9,-0.479459162647,0.519731419059,0.519729509982,0.479457401498
20752000000,181,20752000000,world,1.0,-0.5,4.9,-0.459540259127,0.537424028905,0.53742205484,0.459538571144
20848000000,182,20848000000,world,1.0,-0.5,4.9,-0.438969002776,0.554353723902,0.554351687651,0.438967390356
20944000000,183,20944000000,world,1.0,-0.5,4.9,-0.417774596078,0.570496471045,0.570494375498,0.417773061509
21056000000,184,21056000000,world,1.0,-0.5,4.9,-0.392300382008,0.588304552829,0.588302391869,0.392298941011
21152000000,185,21152000000,world,1.0,-0.5,4.9,-0.369860152426,0.60266516761,0.602662953901,0.369858793856
21248000000,186,21248000000,world,1.0,-0.5,4.9,-0.346894877839,0.616170252716,0.6161679894,0.346893603625
21344000000,187,21344000000,world,1.0,-0.5,4.9,-0.323437159224,0.628800636637,0.628798326928,0.323435971176
21456000000,188,21456000000,world,1.0,-0.5,4.9,-0.299520296623,0.64053838957,0.640536036746,0.299519196426
21552000000,189,21552000000,world,1.0,-0.5,4.9,-0.275178241866,0.651366848869,0.65136445627,0.275177231082
21648000000,190,21648000000,world,1.0,-0.5,4.9,-0.246287914188,0.662830370402,0.662827935695,0.246287009524
21744000000,191,21744000000,world,1.0,-0.5,4.9,-0.225357332118,0.670235711868,0.670233249959,0.225356504335
21856000000,192,21856000000,world,1.0,-0.5,4.9,-0.191414955391,0.680707096669,0.680704596297,0.191414252286
21952000000,193,21952000000,world,1.0,-0.5,4.9,-0.169950192066,0.686380921078,0.686378399864,0.169949567805
22048000000,194,22048000000,world,1.0,-0.5,4.9,-0.139622818282,0.693186342348,0.693183796137,0.139622305419
22144000000,195,22144000000,world,1.0,-0.5,4.9,-0.113410977512,0.697954000477,0.697951436754,0.113410560931
22256000000,196,22256000000,world,1.0,-0.5,4.9,-0.0826296419451,0.702263610672,0.702261031119,0.08262933843
22352000000,197,22352000000,world,1.0,-0.5,4.9,-0.0561163082313,0.704877859315,0.704875270159,0.0561161021049
22448000000,198,22448000000,world,1.0,-0.5,4.9,-0.029523313091,0.706491479486,0.706488884403,0.029523204646
22544000000,199,22544000000,world,1.0,-0.5,4.9,-0.00288840733135,0.707102180527,0.7070995832,0.00288839672166
22656000000,200,22656000000,world,1.0,-0.5,4.9,0.0237505987452,0.7067090955,0.706706499617,-0.0237505115046
22752000000,201,22752000000,world,1.0,-0.5,4.9,0.0547841729997,0.70498264588,0.704980056338,-0.0547839717666
22848000000,202,22848000000,world,1.0,-0.5,4.9,0.0813023996195,0.70241850518,0.702415925057,-0.0813021009796
22944000000,203,22944000000,world,1.0,-0.5,4.9,0.107705211214,0.69885722725,0.698854660209,-0.107704815591
23056000000,204,23056000000,world,1.0,-0.5,4.9,0.138312627857,0.693448955279,0.693446408104,-0.138312119808
23152000000,205,23152000000,world,1.0,-0.5,4.9,0.164337086013,0.687746434933,0.687743908704,-0.16433648237
23248000000,206,23248000000,world,1.0,-0.5,4.9,0.185847485713,0.682248157679,0.682245651646,-0.185846803059
23344000000,207,23344000000,world,1.0,-0.5,4.9,0.215649522276,0.673421948072,0.673419474459,-0.215648730152
23456000000,208,23456000000,world,1.0,-0.5,4.9,0.240864658423,0.66482031627,0.664817874253,-0.24086377368
23552000000,209,23552000000,world,1.0,-0.5,4.9,0.26984767399,0.653593198744,0.653590797967,-0.269846682786
23648000000,210,23648000000,world,1.0,-0.5,4.9,0.290233843413,0.644799311988,0.644796943512,-0.290232777327
23744000000,211,23744000000,world,1.0,-0.5,4.9,0.318289337049,0.631421994013,0.631419674675,-0.318288167909
23856000000,212,23856000000,world,1.0,-0.5,4.9,0.34572985761,0.616824693215,0.616822427495,-0.345728587676
23952000000,213,23952000000,world,1.0,-0.5,4.9,0.368720612275,0.603363030593,0.603360814321,-0.368719257891
24048000000,214,24048000000,world,1.0,-0.5,4.9,0.391187939599,0.589044847626,0.589042683947,-0.391186502688
24144000000,215,24144000000,world,1.0,-0.5,4.9,0.41309994548,0.573890470078,0.573888362065,-0.413098428082
24256000000,216,24256000000,world,1.0,-0.5,4.9,0.437920635236,0.555182270824,0.555180231529,-0.437919026667
24352000000,217,24352000000,world,1.0,-0.5,4.9,0.458523847557,0.538291480356,0.538289503105,-0.458522163308
24448000000,218,24448000000,world,1.0,-0.5,4.9,0.478476149922,0.520636543626,0.520634631224,-0.478474392384
24544000000,219,24544000000,world,1.0,-0.5,4.9,0.497749218498,0.502242523177,0.502240678341,-0.497747390166
24656000000,220,24656000000,world,1.0,-0.5,4.9,0.519339543952,0.479883605357,0.47988184265,-0.519337636315
24752000000,221,24752000000,world,1.0,-0.5,4.9,0.537048420953,0.459979162739,0.459977473145,-0.537046448268
24848000000,222,24848000000,world,1.0,-0.5,4.9,0.551224478159,0.442892098915,0.442890472084,-0.551222453402
24944000000,223,24944000000,world,1.0,-0.5,4.9,0.567517231748,0.42181278818,0.421811238778,-0.567515147144
25056000000,224,25056000000,world,1.0,-0.5,4.9,0.587983860567,0.392780875699,0.392779432937,-0.587981700786
25152000000,225,25152000000,world,1.0,-0.5,4.9,0.602362803453,0.370352385735,0.370351025357,-0.602360590854
25248000000,226,25248000000,world,1.0,-0.5,4.9,0.613692884084,0.35125899366,0.351257703416,-0.613690629868
25344000000,227,25344000000,world,1.0,-0.5,4.9,0.628536189749,0.323950759806,0.32394956987,-0.628533881011
25456000000,228,25456000000,world,1.0,-0.5,4.9,0.642165088308,0.296016614332,0.296015527004,-0.642162729509
25552000000,229,25552000000,world,1.0,-0.5,4.9,0.652860407218,0.271615767748,0.27161477005,-0.652858009132
25648000000,230,25648000000,world,1.0,-0.5,4.9,0.66262894044,0.246829341639,0.246828434986,-0.662626506473
25744000000,231,25744000000,world,1.0,-0.5,4.9,0.671456820788,0.221692522247,0.221691707926,-0.671454354394
25856000000,232,25856000000,world,1.0,-0.5,4.9,0.679331516405,0.196240993225,0.196240272393,-0.679329021085
25952000000,233,25952000000,world,1.0,-0.5,4.9,0.687299104056,0.166198008914,0.166197398436,-0.68729657947
26048000000,234,26048000000,world,1.0,-0.5,4.9,0.693072043974,0.140189081114,0.140188566172,-0.693069498183
26144000000,235,26144000000,world,1.0,-0.5,4.9,0.697861114686,0.113981144105,0.113980725429,-0.697858551304
26256000000,236,26256000000,world,1.0,-0.5,4.9,0.701659517736,0.0876114020723,0.0876110802583,-0.701656940401
26352000000,237,26352000000,world,1.0,-0.5,4.9,0.70483177899,0.0566921504993,0.0566919422578,-0.704829190003
26448000000,238,26448000000,world,1.0,-0.5,4.9,0.706264166329,0.0345364150219,0.0345362881628,-0.70626157208
26544000000,239,26544000000,world,1.0,-0.5,4.9,0.707099584826,0.00346608455642,0.0034660718248,-0.707096987508
26656000000,240,26656000000,world,1.0,-0.5,4.9,0.70656880234,-0.0276109427991,-0.0276108413786,-0.706566206973
26736000000,241,26752000000,world,1.0,-0.5,4.9,0.705027167402,-0.0542082081154,-0.0542080089979,-0.705024577698
26848000000,242,26848000000,world,1.0,-0.5,4.9,0.702484692038,-0.0807285207004,-0.0807282241685,-0.702482111673
26944000000,243,26944000000,world,1.0,-0.5,4.9,0.699603992975,-0.10274283243,-0.102742455035,-0.699601423191
27056000000,244,27056000000,world,1.0,-0.5,4.9,0.693561720529,-0.137746057727,-0.137745551759,-0.693559172939
27152000000,245,27152000000,world,1.0,-0.5,4.9,0.688895386885,-0.159452132415,-0.159451546716,-0.688892856435
27248000000,246,27248000000,world,1.0,-0.5,4.9,0.681222706462,-0.189571782719,-0.189571086384,-0.681220204196
27344000000,247,27344000000,world,1.0,-0.5,4.9,0.674935416062,-0.210864934845,-0.210864160296,-0.674932936891
27440000000,248,27456000000,world,1.0,-0.5,4.9,0.663494570446,-0.244492927486,-0.244492029415,-0.663492133299
27552000000,249,27552000000,world,1.0,-0.5,4.9,0.653813436908,-0.269313620748,-0.269312631506,-0.653811035322
27648000000,250,27648000000,world,1.0,-0.5,4.9,0.643204164783,-0.29375200256,-0.293750923551,-0.643201802167
27744000000,251,27744000000,world,1.0,-0.5,4.9,0.631681814751,-0.317773380754,-0.317772213509,-0.631679494458
27856000000,252,27856000000,world,1.0,-0.5,4.9,0.617106936786,-0.345225817651,-0.345224549568,-0.61710467003
27936000000,253,27952000000,world,1.0,-0.5,4.9,0.605964581386,-0.364429365869,-0.364428027248,-0.605962355558
28048000000,254,28048000000,world,1.0,-0.5,4.9,0.589364238159,-0.39070657965,-0.390705144507,-0.589362073308
28144000000,255,28144000000,world,1.0,-0.5,4.9,0.574227767025,-0.412630958824,-0.412629443149,-0.574225657773
28256000000,256,28256000000,world,1.0,-0.5,4.9,0.555539851664,-0.437466924253,-0.43746531735,-0.555537811056
28352000000,257,28352000000,world,1.0,-0.5,4.9,0.53866589895,-0.458083928894,-0.458082246261,-0.538663920323
28448000000,258,28448000000,world,1.0,-0.5,4.9,0.521027268457,-0.478050648077,-0.478048892102,-0.521025354621
28544000000,259,28544000000,world,1.0,-0.5,4.9,0.505762313724,-0.494172357199,-0.494170542006,-0.505760455958
28656000000,260,28656000000,world,1.0,-0.5,4.9,0.480307727778,-0.51894732222,-0.518945416024,-0.480305963512
28752000000,261,28752000000,world,1.0,-0.5,4.9,0.460417759346,-0.536672454558,-0.536670483254,-0.46041606814
28848000000,262,28848000000,world,1.0,-0.5,4.9,0.439874192404,-0.553635738965,-0.553633705351,-0.439872576659
28944000000,263,28944000000,world,1.0,-0.5,4.9,0.418706190129,-0.569813094752,-0.569811001715,-0.418704652138
29056000000,264,29056000000,world,1.0,-0.5,4.9,0.393261107236,-0.587662775866,-0.587660617264,-0.39325966271
29152000000,265,29152000000,world,1.0,-0.5,4.9,0.370844371858,-0.602060037258,-0.602057825772,-0.370843009673
29248000000,266,29248000000,world,1.0,-0.5,4.9,0.3479011943,-0.615602628005,-0.615600366775,-0.34789991639
29344000000,267,29344000000,world,1.0,-0.5,4.9,0.324464144172,-0.628271323354,-0.628269015589,-0.32446295235
29456000000,268,29456000000,world,1.0,-0.5,4.9,0.296541142362,-0.641923038603,-0.641920680692,-0.296540053107
29552000000,269,29552000000,world,1.0,-0.5,4.9,0.272149041629,-0.652638288597,-0.652635891327,-0.272148041972
29648000000,270,29648000000,world,1.0,-0.5,4.9,0.247370604347,-0.662427068218,-0.662424634992,-0.247369695706
29744000000,271,29744000000,world,1.0,-0.5,4.9,0.226452150032,-0.66986659892,-0.669864138367,-0.226451318228
29856000000,272,29856000000,world,1.0,-0.5,4.9,0.192526928131,-0.680393429236,-0.680390930016,-0.192526220941
29952000000,273,29952000000,world,1.0,-0.5,4.9,0.166759453207,-0.687163096629,-0.687160572543,-0.166758840666
30048000000,274,30048000000,world,1.0,-0.5,4.9,0.14075525038,-0.692957283022,-0.692954737652,-0.140754733359
30144000000,275,30144000000,world,1.0,-0.5,4.9,0.118930870977,-0.697034636536,-0.69703207619,-0.11893043412
30256000000,276,30256000000,world,1.0,-0.5,4.9,0.0837769817499,-0.702127662132,-0.702125083078,-0.0837766740205
30352000000,277,30352000000,world,1.0,-0.5,4.9,0.0572679549291,-0.704785228237,-0.704782639421,-0.0572677445726
30448000000,278,30448000000,world,1.0,-0.5,4.9,0.0306776318305,-0.706442297366,-0.706439702463,-0.0306775191455
30544000000,279,30544000000,world,1.0,-0.5,4.9,0.00404375946811,-0.707096517183,-0.707093919877,-0.00404374461458
30656000000,280,30656000000,world,1.0,-0.5,4.9,-0.0270336911475,-0.706591123738,-0.706588528289,0.0270335918474
30752000000,281,30752000000,world,1.0,-0.5,4.9,-0.0536322070506,-0.705071218367,-0.7050686285,0.0536320100489
30848000000,282,30848000000,world,1.0,-0.5,4.9,-0.0801545879004,-0.702550410036,-0.702547829428,0.0801542934767
30944000000,283,30944000000,world,1.0,-0.5,4.9,-0.106563183132,-0.699032277226,-0.699029709541,0.106562791705
31056000000,284,31056000000,world,1.0,-0.5,4.9,-0.137179395661,-0.693674022873,-0.693671474871,0.137178891774
31152000000,285,31152000000,world,1.0,-0.5,4.9,-0.158889275339,-0.689025423903,-0.689022892976,0.158888691707
31248000000,286,31248000000,world,1.0,-0.5,4.9,-0.189015183908,-0.68137735276,-0.681374849926,0.189014489618
31344000000,287,31344000000,world,1.0,-0.5,4.9,-0.214548909588,-0.673773405528,-0.673770930625,0.214548121507
31456000000,288,31456000000,world,1.0,-0.5,4.9,-0.243950793625,-0.663694091349,-0.663691653469,0.243949897546
31552000000,289,31552000000,world,1.0,-0.5,4.9,-0.268779387758,-0.654033238696,-0.654030836302,0.268778400478
31648000000,290,31648000000,world,1.0,-0.5,4.9,-0.293226428825,-0.64344393543,-0.643441571932,0.293225351746
31744000000,291,31744000000,world,1.0,-0.5,4.9,-0.317257212366,-0.631941213883,-0.631938892638,0.317256047017
31856000000,292,31856000000,world,1.0,-0.5,4.9,-0.344721547277,-0.61738876848,-0.617386500689,0.344720281046
31952000000,293,31952000000,world,1.0,-0.5,4.9,-0.367734266676,-0.603964689129,-0.603962470647,0.367732915915
32048000000,294,32048000000,world,1.0,-0.5,4.9,-0.386514126537,-0.592122172013,-0.592119997031,0.386512706794
32144000000,295,32144000000,world,1.0,-0.5,4.9,-0.412161696764,-0.574564680713,-0.574562570223,0.412160182813
32256000000,296,32256000000,world,1.0,-0.5,4.9,-0.43701292129,-0.55589706172,-0.555895019799,0.437011316054
32352000000,297,32352000000,world,1.0,-0.5,4.9,-0.45764370449,-0.539039958021,-0.53903797802,0.457642023474
32448000000,298,32448000000,world,1.0,-0.5,4.9,-0.477624827165,-0.521417645538,-0.521415730267,0.477623072754
32544000000,299,32544000000,world,1.0,-0.5,4.9,-0.49375900185,-0.506165866781,-0.506164007533,0.493757188176
32656000000,300,32656000000,world,1.0,-0.5,4.9,-0.518554754126,-0.480731529625,-0.480729763803,0.518552849372
32752000000,301,32752000000,world,1.0,-0.5,4.9,-0.53629612997,-0.460856048655,-0.460854355839,0.536294160048
32848000000,302,32848000000,world,1.0,-0.5,4.9,-0.553276192104,-0.440326346989,-0.440324729583,0.553274159811
32944000000,303,32944000000,world,1.0,-0.5,4.9,-0.566827261305,-0.422739508969,-0.422737956163,0.566825179236
33056000000,304,33056000000,world,1.0,-0.5,4.9,-0.587341298939,-0.393741076297,-0.393739630008,0.587339141518
33152000000,305,33152000000,world,1.0,-0.5,4.9,-0.599413058626,-0.375107746855,-0.37510636901,0.599410856863
33248000000,306,33248000000,world,1.0,-0.5,4.9,-0.615318199245,-0.348404004398,-0.348402724641,0.615315939059
33344000000,307,33344000000,world,1.0,-0.5,4.9,-0.625952836944,-0.328914704025,-0.328913495856,0.625950537695
33456000000,308,33456000000,world,1.0,-0.5,4.9,-0.641680560457,-0.29706547247,-0.29706438129,0.641678203437
33552000000,309,33552000000,world,1.0,-0.5,4.9,-0.652415734384,-0.272682133869,-0.272681132253,0.652413337931
33648000000,310,33648000000,world,1.0,-0.5,4.9,-0.662224753869,-0.247911701953,-0.247910791324,0.662222321387
33744000000,311,33744000000,world,1.0,-0.5,4.9,-0.669681371748,-0.226999332459,-0.226998498645,0.669678911875
33856000000,312,33856000000,world,1.0,-0.5,4.9,-0.680235914291,-0.193082721938,-0.193082012707,0.68023341565
33952000000,313,33952000000,world,1.0,-0.5,4.9,-0.687026630567,-0.167320786199,-0.167320171596,0.687024106982
34048000000,314,34048000000,world,1.0,-0.5,4.9,-0.692842059567,-0.141321325702,-0.141320806601,0.69283951462
34144000000,315,34144000000,world,1.0,-0.5,4.9,-0.69767394584,-0.115121248686,-0.115120825823,0.697671383145
34256000000,316,34256000000,world,1.0,-0.5,4.9,-0.701515430151,-0.0887577481812,-0.0887574221564,0.701512853346
34352000000,317,34352000000,world,1.0,-0.5,4.9,-0.704738207087,-0.0578437211364,-0.0578435086649,0.704735618443
34448000000,318,34448000000,world,1.0,-0.5,4.9,-0.706206793451,-0.0356903556557,-0.0356902245579,0.706204199413
34544000000,319,34544000000,world,1.0,-0.5,4.9,-0.7070929776,-0.00462143168086,-0.00462141470542,0.707090380308
34656000000,320,34656000000,world,1.0,-0.5,4.9,-0.706612973534,0.0264564214528,0.0264563242731,0.706610378004
34752000000,321,34752000000,world,1.0,-0.5,4.9,-0.705114798744,0.05305617019,0.0530559753042,0.705112208717
34848000000,322,34848000000,world,1.0,-0.5,4.9,-0.702615659127,0.0795806016027,0.0795803092873,0.702613078281
34944000000,323,34944000000,world,1.0,-0.5,4.9,-0.699119102407,0.105992062215,0.105991672885,0.699116534404
35056000000,324,35056000000,world,1.0,-0.5,4.9,-0.693785862236,0.136612642036,0.136612140231,0.693783313823
35152000000,325,35152000000,world,1.0,-0.5,4.9,-0.689155001043,0.158326312215,0.158325730651,0.68915246964
35248000000,326,35248000000,world,1.0,-0.5,4.9,-0.681531544285,0.188458458942,0.188457766697,0.681529040885
35344000000,327,35344000000,world,1.0,-0.5,4.9,-0.673948459767,0.213998388264,0.213997602206,0.673945984221
35456000000,328,35456000000,world,1.0,-0.5,4.9,-0.665408653445,0.239234530374,0.239233651618,0.665406209267
35552000000,329,35552000000,world,1.0,-0.5,4.9,-0.65425260396,0.268244975375,0.268243990058,0.65425020076
35648000000,330,35648000000,world,1.0,-0.5,4.9,-0.64368327662,0.292700659381,0.292699584233,0.643680912244
35744000000,331,35744000000,world,1.0,-0.5,4.9,-0.632200191237,0.316740832231,0.316739668779,0.63219786904
35856000000,332,35856000000,world,1.0,-0.5,4.9,-0.617670188109,0.344217046824,0.344215782447,0.617667919284
35952000000,333,35952000000,world,1.0,-0.5,4.9,-0.604264913838,0.367240725556,0.367239376607,0.604262694253
36048000000,334,36048000000,world,1.0,-0.5,4.9,-0.59000183893,0.38974307776,0.389741646157,0.589999671736
36144000000,335,36144000000,world,1.0,-0.5,4.9,-0.574901210918,0.411692159614,0.411690647387,0.574899099192
36256000000,336,36256000000,world,1.0,-0.5,4.9,-0.556253900751,0.43655862665,0.436557023083,0.55625185752
36352000000,337,36352000000,world,1.0,-0.5,4.9,-0.539413657318,0.45720317464,0.457201495242,0.539411675945
36448000000,338,36448000000,world,1.0,-0.5,4.9,-0.524794133946,0.473912390193,0.473910649419,0.524792206273
36544000000,339,36544000000,world,1.0,-0.5,4.9,-0.503460945667,0.496516779969,0.496514956164,0.503459096355
36656000000,340,36656000000,world,1.0,-0.5,4.9,-0.484399515094,0.515130028613,0.515128136439,0.484397735798
36752000000,341,36752000000,world,1.0,-0.5,4.9,-0.461294030374,0.53591944744,0.535917478901,0.461292335949
36848000000,342,36848000000,world,1.0,-0.5,4.9,-0.440778207686,0.552916275969,0.552914244998,0.440776588621
36944000000,343,36944000000,world,1.0,-0.5,4.9,-0.423202446293,0.56648170849,0.56647962769,0.423200891787
37056000000,344,37056000000,world,1.0,-0.5,4.9,-0.394220782562,0.587019430001,0.587017273762,0.394219334511
37152000000,345,37152000000,world,1.0,-0.5,4.9,-0.371827601236,0.601453299568,0.601451090311,0.371826235439
37248000000,346,37248000000,world,1.0,-0.5,4.9,-0.348906581959,0.615033359801,0.615031100661,0.348905300356
37344000000,347,37344000000,world,1.0,-0.5,4.9,-0.329425976224,0.62568391604,0.625681617779,0.329424766177
37456000000,348,37456000000,world,1.0,-0.5,4.9,-0.301611885289,0.639556179905,0.639553830689,0.301610777408
37552000000,349,37552000000,world,1.0,-0.5,4.9,-0.273215044112,0.652192744726,0.652190349093,0.273214040539
37648000000,350,37648000000,world,1.0,-0.5,4.9,-0.248452634094,0.662021997531,0.662019565793,0.248451721478
37744000000,351,37744000000,world,1.0,-0.5,4.9,-0.223337526404,0.670911459063,0.670908994672,0.223336706041
37856000000,352,37856000000,world,1.0,-0.5,4.9,-0.197905373875,0.678848510048,0.678846016502,0.19790464693
37952000000,353,37952000000,world,1.0,-0.5,4.9,-0.167882007515,0.686889705961,0.686887182879,0.167881390852
38048000000,354,38048000000,world,1.0,-0.5,4.9,-0.141887306701,0.692726373686,0.692723829164,0.14188678552
38144000000,355,38144000000,world,1.0,-0.5,4.9,-0.115691185913,0.697579662909,0.697577100561,0.115690760957
38256000000,356,38256000000,world,1.0,-0.5,4.9,-0.0893308325671,0.701442684013,0.701440107475,0.0893305044372
38352000000,357,38352000000,world,1.0,-0.5,4.9,-0.0584194487369,0.704690715571,0.704688127102,0.0584192341507
38448000000,358,38448000000,world,1.0,-0.5,4.9,-0.031831868669,0.706391229235,0.70638863452,0.0318317517442
38544000000,359,38544000000,world,1.0,-0.5,4.9,-0.00963942943613,0.707042373555,0.707039776448,0.0096393940286
38656000000,360,38656000000,world,1.0,-0.5,4.9,0.0258791341002,0.706634351713,0.706631756105,-0.025879039041
38752000000,361,38752000000,world,1.0,-0.5,4.9,0.052480097918,0.705157908504,0.705155318319,-0.0524799051482
38848000000,362,38848000000,world,1.0,-0.5,4.9,0.0790065621902,0.702680439271,0.702677858186,-0.0790062719834
38944000000,363,38944000000,world,1.0,-0.5,4.9,0.105420870555,0.699205460973,0.699202892652,-0.105420483324
39056000000,364,39056000000,world,1.0,-0.5,4.9,0.136045797232,0.693897238543,0.693894689721,-0.136045297509
39152000000,365,39152000000,world,1.0,-0.5,4.9,0.162088751453,0.688279792857,0.688277264669,-0.162088156069
39248000000,366,39248000000,world,1.0,-0.5,4.9,0.187901608193,0.681685280933,0.681682776968,-0.187900917993
39344000000,367,39344000000,world,1.0,-0.5,4.9,0.209210105853,0.675450196692,0.67544771563,-0.209209337383
39456000000,368,39456000000,world,1.0,-0.5,4.9,0.242866037803,0.664091804109,0.664089364768,-0.242865145708
39552000000,369,39552000000,world,1.0,-0.5,4.9,0.267710383957,0.654471532555,0.654469128551,-0.267709400603
39648000000,370,39648000000,world,1.0,-0.5,4.9,0.292174694578,0.643922188196,0.643919822942,-0.292173621363
39744000000,371,39744000000,world,1.0,-0.5,4.9,0.316224240692,0.63245874664,0.632456423493,-0.316223079138
39856000000,372,39856000000,world,1.0,-0.5,4.9,0.34371231663,0.617951195484,0.617948925626,-0.343711054106
39952000000,373,39952000000,world,1.0,-0.5,4.9,0.366746939326,0.604564735241,0.604562514555,-0.366745592192
40048000000,374,40048000000,world,1.0,-0.5,4.9,0.389260936464,0.590320048741,0.590317880379,-0.389259506631
40144000000,375,40144000000,world,1.0,-0.5,4.9,0.411222347687,0.575237357415,0.575235244454,-0.411220837186
40256000000,376,40256000000,world,1.0,-0.5,4.9,0.43259999708,0.559338072304,0.559336017745,-0.432598408054
40352000000,377,40352000000,world,1.0,-0.5,4.9,0.456762339637,0.539786996594,0.539785013849,-0.456760661859
40448000000,378,40448000000,world,1.0,-0.5,4.9,0.476772229278,0.522197355405,0.52219543727,-0.476770477999
40544000000,379,40544000000,world,1.0,-0.5,4.9,0.496105303977,0.503866414805,0.503864564004,-0.496103481684
40656000000,380,40656000000,world,1.0,-0.5,4.9,0.517768579899,0.481578170468,0.481576401536,-0.517766678033
40752000000,381,40752000000,world,1.0,-0.5,4.9,0.532632229139,0.465085739498,0.465084031146,-0.532630272675
40848000000,382,40848000000,world,1.0,-0.5,4.9,0.552555990799,0.441229774193,0.441228153469,-0.552553961151
40944000000,383,40944000000,world,1.0,-0.5,4.9,0.568785178544,0.420101484491,0.420099941375,-0.568783089283
41056000000,384,41056000000,world,1.0,-0.5,4.9,0.586697169267,0.394700225711,0.394698775899,-0.586695014212
41152000000,385,41152000000,world,1.0,-0.5,4.9,0.601149328478,0.372318843834,0.372317476233,-0.601147120337
41248000000,386,41248000000,world,1.0,-0.5,4.9,0.614748109863,0.349408926649,0.349407643201,-0.614745851772
41344000000,387,41344000000,world,1.0,-0.5,4.9,0.627474208906,0.326002996551,0.326001799078,-0.627471904069
41456000000,388,41456000000,world,1.0,-0.5,4.9,0.641194319491,0.298113537524,0.298112442494,-0.641191964257
41552000000,389,41552000000,world,1.0,-0.5,4.9,0.651969319774,0.273747772002,0.273746766472,-0.651966924961
41648000000,390,41648000000,world,1.0,-0.5,4.9,0.660242101464,0.253144630709,0.253143700858,-0.660239676264
41744000000,391,41744000000,world,1.0,-0.5,4.9,0.670728776083,0.223885563486,0.22388474111,-0.670726312363
41856000000,392,41856000000,world,1.0,-0.5,4.9,0.678686601613,0.198459903742,0.198459174759,-0.678684108663
41952000000,393,41952000000,world,1.0,-0.5,4.9,0.686752322902,0.168443116782,0.168442498057,-0.686749800324
42048000000,394,42048000000,world,1.0,-0.5,4.9,0.692610225457,0.142453192999,0.14245266974,-0.692607681362
42144000000,395,42144000000,world,1.0,-0.5,4.9,0.697484914391,0.116261045925,0.116260618875,-0.697482352391
42256000000,396,42256000000,world,1.0,-0.5,4.9,0.701920224764,0.0854975711338,0.0854972570843,-0.701917646472
42352000000,397,42352000000,world,1.0,-0.5,4.9,0.704642753721,0.0589951373463,0.0589949206455,-0.704640165429
42448000000,398,42448000000,world,1.0,-0.5,4.9,0.706364987957,0.0324089554124,0.0324088363679,-0.706362393338
42544000000,399,42544000000,world,1.0,-0.5,4.9,0.707084482627,0.00577676646731,0.0057767452481,-0.707081885365
42656000000,400,42656000000,world,1.0,-0.5,4.9,0.706655258261,-0.025301829475,-0.0253017365363,-0.706652662576
42752000000,401,42752000000,world,1.0,-0.5,4.9,0.705200547618,-0.051903990619,-0.0519037999653,-0.705197957276
42848000000,402,42848000000,world,1.0,-0.5,4.9,0.702744750422,-0.0784324700461,-0.0784321819481,-0.702742169101
42944000000,403,42944000000,world,1.0,-0.5,4.9,0.699936006365,-0.100456077944,-0.100455708949,-0.699933435361
43056000000,404,43056000000,world,1.0,-0.5,4.9,0.694008151721,-0.135478861626,-0.135478363985,-0.694005602491
43152000000,405,43152000000,world,1.0,-0.5,4.9,0.688411984108,-0.161526396416,-0.161525803098,-0.688409455434
43248000000,406,43248000000,world,1.0,-0.5,4.9,0.681838562602,-0.187344632032,-0.187343943878,-0.681836058074
43344000000,407,43344000000,world,1.0,-0.5,4.9,0.674297218683,-0.212896917496,-0.212896135484,-0.674294741855
43456000000,408,43456000000,world,1.0,-0.5,4.9,0.665798657868,-0.238146979371,-0.23814610461,-0.665796212258
43552000000,409,43552000000,world,1.0,-0.5,4.9,0.654690024333,-0.26717561386,-0.267174632471,-0.654687619527
43648000000,410,43648000000,world,1.0,-0.5,4.9,0.644160669996,-0.291648534769,-0.291647463486,-0.644158303866
43744000000,411,43744000000,world,1.0,-0.5,4.9,0.632716879919,-0.315707438095,-0.315706278439,-0.632714555824
43856000000,412,43856000000,world,1.0,-0.5,4.9,0.620374899444,-0.33931817037,-0.339316923987,-0.620372620684
43952000000,413,43952000000,world,1.0,-0.5,4.9,0.607152248964,-0.362447214337,-0.362445882997,-0.607150018773
44048000000,414,44048000000,world,1.0,-0.5,4.9,0.590637864554,-0.388778535361,-0.388777107301,-0.590635695024
44144000000,415,44144000000,world,1.0,-0.5,4.9,0.575573119979,-0.410752261297,-0.410750752522,-0.575571005785
44256000000,416,44256000000,world,1.0,-0.5,4.9,0.556966464788,-0.435649163552,-0.435647563326,-0.55696441894
44352000000,417,44352000000,world,1.0,-0.5,4.9,0.543014965017,-0.452920063996,-0.452918400331,-0.543012970415
44448000000,418,44448000000,world,1.0,-0.5,4.9,0.522586687671,-0.476345452872,-0.476343703161,-0.522584768106
44544000000,419,44544000000,world,1.0,-0.5,4.9,0.504271547646,-0.495693496868,-0.495691676087,-0.504269695357
44656000000,420,44656000000,world,1.0,-0.5,4.9,0.485240555277,-0.514337865724,-0.514335976459,-0.485238772892
44752000000,421,44752000000,world,1.0,-0.5,4.9,0.465520726524,-0.53225209232,-0.532250137252,-0.465519016574
44848000000,422,44848000000,world,1.0,-0.5,4.9,0.441681046209,-0.552195336835,-0.552193308512,-0.441679423827
44944000000,423,44944000000,world,1.0,-0.5,4.9,0.420566022247,-0.56844178025,-0.568439692251,-0.420564477424
45056000000,424,45056000000,world,1.0,-0.5,4.9,0.398853972387,-0.583881276728,-0.583879132016,-0.398852507317
45152000000,425,45152000000,world,1.0,-0.5,4.9,0.372809837934,-0.60084495616,-0.600842749137,-0.372808468529
45248000000,426,45248000000,world,1.0,-0.5,4.9,0.349911038132,-0.614462449623,-0.61446019258,-0.349909752839
45344000000,427,45344000000,world,1.0,-0.5,4.9,0.32651551263,-0.627207666259,-0.627205362401,-0.326514313274
45456000000,428,45456000000,world,1.0,-0.5,4.9,0.298637271769,-0.640950556995,-0.640948202657,-0.298636174815
45552000000,429,45552000000,world,1.0,-0.5,4.9,0.274280317183,-0.651745459676,-0.651743065686,-0.274279309697
45648000000,430,45648000000,world,1.0,-0.5,4.9,0.249534000538,-0.661615159423,-0.661612729179,-0.24953308395
45744000000,431,45744000000,world,1.0,-0.5,4.9,0.228639969239,-0.669123008922,-0.6691205511,-0.228639129399
45856000000,432,45856000000,world,1.0,-0.5,4.9,0.194749328658,-0.679760645808,-0.679758148913,-0.194748613305
45952000000,433,45952000000,world,1.0,-0.5,4.9,0.173312635015,-0.685539617489,-0.685537099366,-0.173311998404
46048000000,434,46048000000,world,1.0,-0.5,4.9,0.14301898422,-0.692493614956,-0.69249107129,-0.143018458883
46144000000,435,46144000000,world,1.0,-0.5,4.9,0.121208045555,-0.696642265654,-0.696639706749,-0.121207600334
46256000000,436,46256000000,world,1.0,-0.5,4.9,0.086070987311,-0.701850141943,-0.701847563909,-0.0860706711552
46352000000,437,46352000000,world,1.0,-0.5,4.9,0.0595707865804,-0.70459432157,-0.704591733455,-0.0595705677651
46448000000,438,46448000000,world,1.0,-0.5,4.9,0.032986020525,-0.706338275228,-0.706335680708,-0.0329858993608
46544000000,439,46544000000,world,1.0,-0.5,4.9,0.00635442826991,-0.707079527241,-0.707076929998,-0.00635440492883
46656000000,440,46656000000,world,1.0,-0.5,4.9,-0.0247245079625,-0.706675693164,-0.706673097404,0.0247244171445
46752000000,441,46752000000,world,1.0,-0.5,4.9,-0.0513278486775,-0.705242716058,-0.705240125561,0.0513276601402
46848000000,442,46848000000,world,1.0,-0.5,4.9,-0.0778583255536,-0.702808592537,-0.702806010982,0.0778580395646
46944000000,443,46944000000,world,1.0,-0.5,4.9,-0.0998842207497,-0.70001784195,-0.700015270645,0.0998838538551
47056000000,444,47056000000,world,1.0,-0.5,4.9,-0.130550196459,-0.694952144257,-0.69494959156,0.130549716922
47152000000,445,47152000000,world,1.0,-0.5,4.9,-0.160963933572,-0.68854371589,-0.688541186732,0.160963342319
47248000000,446,47248000000,world,1.0,-0.5,4.9,-0.186787530831,-0.68199138919,-0.6819888841,0.186786844723
47344000000,447,47344000000,world,1.0,-0.5,4.9,-0.208106187743,-0.675791129881,-0.675788647566,0.208105423327
47456000000,448,47456000000,world,1.0,-0.5,4.9,-0.241780633593,-0.664487743921,-0.664485303126,0.241779745485
47552000000,449,47552000000,world,1.0,-0.5,4.9,-0.266640665441,-0.65490807915,-0.654905673543,0.266639686017
47648000000,450,47648000000,world,1.0,-0.5,4.9,-0.287069695602,-0.646214226453,-0.64621185278,0.287068641138
47744000000,451,47744000000,world,1.0,-0.5,4.9,-0.315190424784,-0.632974590901,-0.63297226586,0.315189267027
47856000000,452,47856000000,world,1.0,-0.5,4.9,-0.342702168363,-0.618511972723,-0.618509700806,0.34270090955
47952000000,453,47952000000,world,1.0,-0.5,4.9,-0.36575863286,-0.605163167328,-0.605160944444,0.365757289356
48048000000,454,48048000000,world,1.0,-0.5,4.9,-0.384577092101,-0.593382083344,-0.593379903734,0.384575679473
48144000000,455,48144000000,world,1.0,-0.5,4.9,-0.410281900757,-0.575908498387,-0.575906382961,0.41028039371
48240000000,456,48256000000,world,1.0,-0.5,4.9,-0.435193995702,-0.557322189319,-0.557320142164,0.435192397148
48352000000,457,48352000000,world,1.0,-0.5,4.9,-0.455879755352,-0.54053259408,-0.540530608597,0.455878080815
48448000000,458,48448000000,world,1.0,-0.5,4.9,-0.475918358537,-0.522975671145,-0.522973750152,0.475916610395
48528000000,459,48544000000,world,1.0,-0.5,4.9,-0.495281358917,-0.50467634392,-0.504674490143,0.49527953965
48656000000,460,48656000000,world,1.0,-0.5,4.9,-0.516981023369,-0.482423525627,-0.48242175359,0.516979124395
48752000000,461,48752000000,world,1.0,-0.5,4.9,-0.534787254715,-0.462606127064,-0.46260442782,0.534785290335
48848000000,462,48848000000,world,1.0,-0.5,4.9,-0.551834314317,-0.442132023432,-0.442130399394,0.55183228732
48944000000,463,48944000000,world,1.0,-0.5,4.9,-0.56809800256,-0.421030279302,-0.421028732775,0.568095915824
49056000000,464,49056000000,world,1.0,-0.5,4.9,-0.586051473272,-0.395658321382,-0.39565686805,0.586049320588
49152000000,465,49152000000,world,1.0,-0.5,4.9,-0.600540182818,-0.373300583208,-0.373299212001,0.600537976915
49248000000,466,49248000000,world,1.0,-0.5,4.9,-0.614176379269,-0.350412916072,-0.350411628936,0.614174123278
49344000000,467,49344000000,world,1.0,-0.5,4.9,-0.624874648435,-0.330958472238,-0.330957256562,0.624872353146
49456000000,468,49456000000,world,1.0,-0.5,4.9,-0.640706366708,-0.299160806694,-0.299159707817,0.640704013267
49552000000,469,49552000000,world,1.0,-0.5,4.9,-0.64978252789,-0.278898732609,-0.278897708159,0.64978014111
49648000000,470,49648000000,world,1.0,-0.5,4.9,-0.661411077925,-0.25007443412,-0.250073515547,0.661408648431
49744000000,471,49744000000,world,1.0,-0.5,4.9,-0.670362067244,-0.224981188997,-0.224980362597,0.670359604871
49856000000,472,49856000000,world,1.0,-0.5,4.9,-0.67960131545,-0.195304604762,-0.195303887369,0.67959881914
49952000000,473,49952000000,world,1.0,-0.5,4.9,-0.686476181793,-0.169564997668,-0.169564374822,0.686473660229
50048000000,474,50048000000,world,1.0,-0.5,4.9,-0.692376542263,-0.143584679985,-0.14358415257,0.692373999027
50144000000,475,50144000000,world,1.0,-0.5,4.9,-0.697294020845,-0.117400532777,-0.117400101542,0.697291459546
50256000000,476,50256000000,world,1.0,-0.5,4.9,-0.701779590685,-0.0866443460416,-0.0866440277797,0.701777012909
50352000000,477,50352000000,world,1.0,-0.5,4.9,-0.704545419149,-0.060146396055,-0.0601461751254,0.704542831214
50448000000,478,50448000000,world,1.0,-0.5,4.9,-0.706086391705,-0.0379979479917,-0.0379978084177,0.70608379811
50544000000,479,50544000000,world,1.0,-0.5,4.9,-0.707016624764,-0.0113722869287,-0.011372245156,0.707014027752
50656000000,480,50656000000,world,1.0,-0.5,4.9,-0.706833362584,0.0197087325892,0.0197086601951,0.706830766245
50752000000,481,50752000000,world,1.0,-0.5,4.9,-0.705284413796,0.0507516724782,0.0507514860572,0.705281823146
50848000000,482,50848000000,world,1.0,-0.5,4.9,-0.702871965576,0.0772841290959,0.077283845216,0.702869383788
50944000000,483,50944000000,world,1.0,-0.5,4.9,-0.699461736405,0.103706874933,0.103706493997,0.699459167143
51056000000,484,51056000000,world,1.0,-0.5,4.9,-0.69422858839,0.134344719524,0.134344226049,0.694226038351
51152000000,485,51152000000,world,1.0,-0.5,4.9,-0.688674988116,0.160401363294,0.160400774108,0.688672458476
51248000000,486,51248000000,world,1.0,-0.5,4.9,-0.683299812916,0.181942854413,0.1819421861,0.68329730302
51344000000,487,51344000000,world,1.0,-0.5,4.9,-0.674644177405,0.211794878351,0.211794100386,0.674641699303
51456000000,488,51456000000,world,1.0,-0.5,4.9,-0.664685048642,0.241237689249,0.241236803135,0.664682607122
51552000000,489,51552000000,world,1.0,-0.5,4.9,-0.65512569686,0.266105539057,0.266104561599,0.655123290453
51648000000,490,51648000000,world,1.0,-0.5,4.9,-0.644636343636,0.290595631534,0.290594564119,0.644633975758
51744000000,491,51744000000,world,1.0,-0.5,4.9,-0.633231879416,0.314673201105,0.314672045248,0.63322955343
51856000000,492,51856000000,world,1.0,-0.5,4.9,-0.620928493717,0.338304067804,0.338302825146,0.620926212924
51952000000,493,51952000000,world,1.0,-0.5,4.9,-0.605461777613,0.365264113283,0.365262771596,0.605459553632
52048000000,494,52048000000,world,1.0,-0.5,4.9,-0.591272313333,0.387812955028,0.387811530515,0.591270141473
52144000000,495,52144000000,world,1.0,-0.5,4.9,-0.576243492414,0.409811266381,0.409809761063,0.576241375758
52256000000,496,52256000000,world,1.0,-0.5,4.9,-0.557677541875,0.434738537388,0.434736940508,0.557675493415
52352000000,497,52352000000,world,1.0,-0.5,4.9,-0.540904851794,0.455438006658,0.455436333744,0.540902864943
52448000000,498,52448000000,world,1.0,-0.5,4.9,-0.523364305568,0.475490946559,0.475489199987,0.523362383147
52544000000,499,52544000000,world,1.0,-0.5,4.9,-0.505080803356,0.494868890398,0.494867072647,0.505078948094
52656000000,500,52656000000,world,1.0,-0.5,4.9,-0.48284572037,0.516586727397,0.516584829872,0.482843946782
52752000000,501,52752000000,world,1.0,-0.5,4.9,-0.463042875499,0.534409142935,0.534407179944,0.46304117465
52848000000,502,52848000000,world,1.0,-0.5,4.9,-0.446037160112,0.54868268462,0.548680669199,0.446035521729
52944000000,503,52944000000,world,1.0,-0.5,4.9,-0.42505136791,0.565095718654,0.565093642945,0.425049806612
53056000000,504,53056000000,world,1.0,-0.5,4.9,-0.39980746154,0.583228797557,0.583226655242,0.399805992968
53152000000,505,53152000000,world,1.0,-0.5,4.9,-0.373791079329,0.600235008656,0.600232803874,0.37378970632
53248000000,506,53248000000,world,1.0,-0.5,4.9,-0.350914560135,0.613889898995,0.613887644055,0.350913271156
53344000000,507,53344000000,world,1.0,-0.5,4.9,-0.327539890665,0.626673325286,0.626671023391,0.327538687546
53456000000,508,53456000000,world,1.0,-0.5,4.9,-0.299684141949,0.640461748793,0.64045939625,0.29968304115
53552000000,509,53552000000,world,1.0,-0.5,4.9,-0.279429489538,0.649554460364,0.649552074422,0.279428463138
53648000000,510,53648000000,world,1.0,-0.5,4.9,-0.254762054305,0.659619687615,0.659617264701,0.254761118513
53744000000,511,53744000000,world,1.0,-0.5,4.9,-0.225528776696,0.670178041631,0.670175579934,0.225527948284
53856000000,512,53856000000,world,1.0,-0.5,4.9,-0.195859750512,0.679441531503,0.67943903578,0.195859031081
53952000000,513,53952000000,world,1.0,-0.5,4.9,-0.170125768538,0.686337423926,0.686334902873,0.170125143632
54048000000,514,54048000000,world,1.0,-0.5,4.9,-0.144150279917,0.692259007455,0.69225646465,0.144149750424
54144000000,515,54144000000,world,1.0,-0.5,4.9,-0.117970158858,0.697197875945,0.697195314998,0.11796972553
54256000000,516,54256000000,world,1.0,-0.5,4.9,-0.0872176469429,0.701708571035,0.70170599352,0.0872173265752
54336000000,517,54352000000,world,1.0,-0.5,4.9,-0.065144915965,0.704100828381,0.704098242079,0.0651446766748
54448000000,518,54448000000,world,1.0,-0.5,4.9,-0.0341400843171,0.706283435488,0.706280841169,0.0341399589138
54544000000,519,54544000000,world,1.0,-0.5,4.9,-0.00750973876609,0.707068200689,0.707065603488,0.00750971118133
54656000000,520,54656000000,world,1.0,-0.5,4.9,0.023569815817,0.70671514798,0.706712552075,-0.0235697292404
54752000000,521,54752000000,world,1.0,-0.5,4.9,0.0501754624055,0.705325640804,0.705323050003,-0.0501752781011
54848000000,522,54848000000,world,1.0,-0.5,4.9,0.0767098810563,0.702934869494,0.702932287475,-0.0767095992856
54944000000,523,54944000000,world,1.0,-0.5,4.9,0.103135404116,0.699546227937,0.699543658365,-0.103135025279
55056000000,524,55056000000,world,1.0,-0.5,4.9,0.133777513784,0.694338111735,0.694335561294,-0.133777022393
55152000000,525,55152000000,world,1.0,-0.5,4.9,0.15983868596,0.688805800697,0.688803270576,-0.159838098841
55248000000,526,55248000000,world,1.0,-0.5,4.9,0.185672954796,0.682295676712,0.682293170505,-0.185672272782
55344000000,527,55344000000,world,1.0,-0.5,4.9,0.211243646556,0.674816981405,0.674814502668,-0.211242870616
55456000000,528,55456000000,world,1.0,-0.5,4.9,0.240694583894,0.66488190973,0.664879467487,-0.240693699776
55552000000,529,55552000000,world,1.0,-0.5,4.9,0.265570235066,0.655342877317,0.655340470112,-0.265569259574
55648000000,530,55648000000,world,1.0,-0.5,4.9,0.290068888811,0.644873535157,0.644871166409,-0.290067823331
55744000000,531,55744000000,world,1.0,-0.5,4.9,0.314155767403,0.633488745291,0.633486418361,-0.314154613446
55856000000,532,55856000000,world,1.0,-0.5,4.9,0.341691105173,0.619071098702,0.619068824731,-0.341689850074
55952000000,533,55952000000,world,1.0,-0.5,4.9,0.364769349917,0.605759983792,0.605757758715,-0.364768010047
56048000000,534,56048000000,world,1.0,-0.5,4.9,0.387329776442,0.591588945877,0.591586772853,-0.387328353703
56144000000,535,56144000000,world,1.0,-0.5,4.9,0.409340358484,0.576578101838,0.576575983952,-0.409338854895
56256000000,536,56256000000,world,1.0,-0.5,4.9,0.434282788916,0.558032522219,0.558030472454,-0.43428119371
56352000000,537,56352000000,world,1.0,-0.5,4.9,0.451587831146,0.544123393509,0.544121394836,-0.451586172374
56448000000,538,56448000000,world,1.0,-0.5,4.9,0.471764748221,0.52672560118,0.526723666412,-0.471763015336
56544000000,539,56544000000,world,1.0,-0.5,4.9,0.494456091588,0.505484925684,0.505483068938,-0.494454275353
56656000000,540,56656000000,world,1.0,-0.5,4.9,0.513147047406,0.486499685859,0.48649789885,-0.513145162515
56752000000,541,56752000000,world,1.0,-0.5,4.9,0.534030674472,0.463479314884,0.463477612432,-0.534028712872
56848000000,542,56848000000,world,1.0,-0.5,4.9,0.551111164586,0.443033092298,0.443031464949,-0.551109140246
56944000000,543,56944000000,world,1.0,-0.5,4.9,0.564748277707,0.425512889851,0.425511326858,-0.564746203275
57056000000,544,57056000000,world,1.0,-0.5,4.9,0.582901973963,0.400283806008,0.400282335687,-0.582899832848
57136000000,545,57152000000,world,1.0,-0.5,4.9,0.59756716372,0.378041428214,0.378040039592,-0.597564968738
57248000000,546,57248000000,world,1.0,-0.5,4.9,0.61360300899,0.351415969986,0.351414679166,-0.613600755104
57344000000,547,57344000000,world,1.0,-0.5,4.9,0.626405527317,0.328051751937,0.328050546938,-0.626403226405
57456000000,548,57456000000,world,1.0,-0.5,4.9,0.640216703412,0.300207277186,0.300206174465,-0.640214351769
57552000000,549,57552000000,world,1.0,-0.5,4.9,0.651071270003,0.275876852925,0.275875839574,-0.651068878489
57648000000,550,57648000000,world,1.0,-0.5,4.9,0.661001590724,0.251154800199,0.251153877658,-0.660999162734
57744000000,551,57744000000,world,1.0,-0.5,4.9,0.669993568719,0.226076213869,0.226075383447,-0.6699911077
57856000000,552,57856000000,world,1.0,-0.5,4.9,0.679281294075,0.19641476554,0.196414044069,-0.67927879894
57952000000,553,57952000000,world,1.0,-0.5,4.9,0.686198207976,0.17068642586,0.170685798895,-0.686195687434
58048000000,554,58048000000,world,1.0,-0.5,4.9,0.69214101061,0.144715783638,0.144715252068,-0.692138468239
58144000000,555,58144000000,world,1.0,-0.5,4.9,0.697101265711,0.118539706202,0.118539270782,-0.69709870512
58240000000,556,58256000000,world,1.0,-0.5,4.9,0.701637083042,0.0877908896323,0.0877905671589,-0.70163450579
58352000000,557,58352000000,world,1.0,-0.5,4.9,0.70444620363,0.0612974941891,0.0612972690312,-0.704443616059
