%time,field.header.seq,field.header.stamp,field.header.frame_id,field.twist.linear.x,field.twist.linear.y,field.twist.linear.z,field.twist.angular.x,field.twist.angular.y,field.twist.angular.z
18416000000,1144,18416000000,world,-2.48219225684e-13,8.24583433732e-12,3.31440253924e-14,2.94379368573e-11,-1.16029109809e-12,5.78935663965e-10
18432000000,1145,18432000000,world,-1.53180464371e-13,7.15244107925e-12,2.71355233848e-14,2.56777978445e-11,-1.06526811721e-12,5.24635510776e-10
18432000000,1146,18448000000,world,1.78553749369e-13,2.84209679414e-12,2.48832336236e-14,1.14217405721e-11,-1.77934159547e-12,3.99094461632e-10
18464000000,1147,18464000000,world,2.86056595069e-13,4.07886690777e-13,2.18115611028e-14,2.9224456917e-12,-1.86366054221e-12,2.57999234422e-10
18480000000,1148,18480000000,world,-7.23456841629e-14,1.31653886605e-12,1.46686115233e-14,4.91120212806e-12,-5.60103983796e-13,1.25389333788e-10
18496000000,1149,18496000000,world,-2.39497140016e-13,1.35505190889e-12,1.00129959776e-14,4.10748589359e-12,1.04355555162e-13,-1.92322671444e-11
18512000000,1150,18512000000,world,-1.3183917615e-13,-1.48883781732e-12,8.96319083196e-15,-5.82826478488e-12,-9.65782511066e-14,-1.85027912437e-10
18544000000,1151,18528000000,world,6.90403241537e-14,-3.20163931488e-12,9.43049128335e-15,-1.21383360073e-11,-6.13843524113e-13,-3.35907849733e-10
18544000000,1152,18544000000,world,-1.13146277722e-13,-3.97883314253e-12,6.42058321796e-15,-1.53759499798e-11,2.74100920523e-14,-4.6297495824e-10
18560000000,1153,18560000000,world,-1.13146277722e-13,-3.97883314253e-12,6.42058321796e-15,-1.53759499798e-11,2.74100920523e-14,-4.6297495824e-10
18576000000,1154,18576000000,world,3.29740882222e-13,-8.07725646896e-12,8.77997191788e-15,-2.90137370216e-11,-1.22055598881e-12,-5.95314756842e-10
18592000000,1155,18592000000,world,3.0026048297e-13,-6.05612428173e-12,7.34678291585e-15,-2.24263898027e-11,-1.08892792092e-12,-5.51642838404e-10
18608000000,1156,18608000000,world,2.89024143834e-13,-4.79233452642e-12,6.30393307166e-15,-1.79040286883e-11,-1.02506391437e-12,-4.61188606151e-10
18608000000,1157,18624000000,world,2.89024143834e-13,-4.79233452642e-12,6.30393307166e-15,-1.79040286883e-11,-1.02506391437e-12,-4.61188606151e-10
18640000000,1158,18640000000,world,1.78674016064e-13,-3.78907443886e-12,4.71074803643e-15,-1.39489540144e-11,-6.54227655394e-13,-3.3225198656e-10
18656000000,1159,18656000000,world,1.09132815924e-13,1.93965811034e-13,2.5387155001e-15,6.2702413652e-13,-3.98777797283e-13,3.3823577828e-12
18672000000,1160,18672000000,world,-6.26785310072e-14,2.06420145324e-12,4.68781023582e-16,7.53585709763e-12,1.39662813209e-13,1.71081332254e-10
18688000000,1161,18688000000,world,-2.60143622569e-13,3.6629634034e-12,-2.15328299095e-15,1.34752912964e-11,7.55707967382e-13,3.19677284604e-10
18704000000,1162,18704000000,world,-3.38151284198e-13,4.88707049793e-12,-2.78650781569e-15,1.80685103384e-11,1.00719371977e-12,4.40605119023e-10
18720000000,1163,18720000000,world,-3.10652951014e-13,5.73429371866e-12,-3.34775457429e-15,2.12494780602e-11,9.31778879077e-13,5.24603175532e-10
18736000000,1164,18736000000,world,-3.1002721908e-13,6.23419155849e-12,-3.74389929351e-15,2.30482889267e-11,9.29899005494e-13,5.61960278259e-10
18752000000,1165,18752000000,world,-2.45399442033e-13,7.24364541064e-12,-3.36450750002e-15,2.60972401169e-11,7.41703925078e-13,5.46028623834e-10
18752000000,1166,18768000000,world,-1.3343528157e-13,5.67367988777e-12,-2.0114313779e-15,2.06618669742e-11,3.97121860576e-13,4.62255492969e-10
18768000000,1167,18784000000,world,-3.37314253936e-15,3.38147994258e-12,-4.09949956451e-16,1.26416691419e-11,-3.23394384053e-15,3.26742993381e-10
18800000000,1168,18800000000,world,8.76905706944e-14,9.79242223992e-13,7.1508668697e-16,4.10331035561e-12,-2.78767977194e-13,1.63878018409e-10
18816000000,1169,18816000000,world,1.29357103596e-13,-1.04306097514e-12,1.3874441607e-15,-3.27291855091e-12,-4.07428032318e-13,-2.6962331584e-12
18832000000,1170,18832000000,world,1.29359279422e-13,-2.44038257323e-12,1.76206626544e-15,-8.6066554459e-12,-4.03138729471e-13,-1.54909147646e-10
18848000000,1171,18848000000,world,1.29359279422e-13,-2.44038257323e-12,1.76206626544e-15,-8.6066554459e-12,-4.03138729471e-13,-1.54909147646e-10
18864000000,1172,18864000000,world,9.60464915348e-15,-3.34975871986e-12,4.50439897817e-16,-1.29003399219e-11,-3.68839582086e-14,-3.82734261154e-10
18880000000,1173,18880000000,world,-2.2555246083e-14,-4.21621737834e-12,2.7811466629e-16,-1.60962859218e-11,6.17466579643e-14,-4.59676636426e-10
18896000000,1174,18896000000,world,-7.16090710955e-15,-5.51312154156e-12,6.0383204963e-16,-2.04336550915e-11,1.38144593895e-14,-5.04984473951e-10
18912000000,1175,18912000000,world,4.52686144617e-08,5.76287234388e-11,-7.65615018357e-08,-4.9832835516e-09,3.87778063258e-06,-6.30100004237e-10
18928000000,1176,18928000000,world,-9.0422336871e-09,-5.32810393461e-11,1.53124183387e-08,8.61309566361e-10,-7.75591429951e-07,-6.59116290898e-10
18928000000,1177,18944000000,world,-7.24255956228e-09,-3.50455811547e-11,1.22498475015e-08,7.1278770237e-10,-6.20446202981e-07,-5.14730749224e-10
18960000000,1178,18960000000,world,-5.80164626422e-09,2.27261647042e-11,9.79979706715e-09,7.31696772582e-10,-4.9633360145e-07,6.13822747017e-11
18976000000,1179,18976000000,world,-4.63834459302e-09,5.04189957739e-11,7.83986284378e-09,6.88097653695e-10,-3.97076002058e-07,3.80835314723e-10
18992000000,1180,18992000000,world,-3.70414682733e-09,-3.37946297319e-12,6.27196022821e-09,4.11560107315e-10,-3.17680871824e-07,-8.24125018175e-11
19008000000,1181,19008000000,world,-2.96621185016e-09,-5.75863264815e-11,5.01754621175e-09,1.54499740572e-10,-2.54135820478e-07,-6.05645928696e-10
19008000000,1182,19024000000,world,-2.38027464205e-09,-3.97721549675e-11,4.0139643092e-09,1.43851759085e-10,-2.03286216544e-07,-3.91304556763e-10
19040000000,1183,19040000000,world,-1.90464337906e-09,3.82692882682e-11,3.21115879234e-09,3.38645871784e-10,-1.62627644628e-07,4.39466975068e-10
19056000000,1184,19056000000,world,-1.51912692692e-09,3.38570373094e-11,2.56897127334e-09,2.83270204904e-10,-1.3011621005e-07,7.01746253159e-10
19072000000,1185,19072000000,world,-1.21400318791e-09,1.26314117169e-12,2.05519296948e-09,1.46140813212e-10,-1.04096963539e-07,5.80643036019e-10
19088000000,1186,19088000000,world,-9.68833912683e-10,-1.31322879236e-11,1.64417889549e-09,7.25624517523e-11,-8.32848536076e-08,4.32172404049e-10
19104000000,1187,19104000000,world,-7.74358917012e-10,-7.40609223946e-12,1.31535011159e-09,6.86034264344e-11,-6.66300593096e-08,4.83302902534e-10
19120000000,1188,19120000000,world,-6.19932575895e-10,9.88771884365e-12,1.05227335517e-09,1.05701229271e-10,-5.33026709109e-08,6.15774680064e-10
19120000000,1189,19136000000,world,-4.96429014505e-10,8.53515461023e-12,8.41813752332e-10,8.69881633791e-11,-4.26406558229e-08,5.67166150382e-10
19152000000,1190,19152000000,world,-3.97420604408e-10,4.00903395925e-12,6.73449178313e-10,6.05925871552e-11,-3.41116732696e-08,4.22574431349e-10
19168000000,1191,19168000000,world,-3.97420604408e-10,4.00903395925e-12,6.73449178313e-10,6.05925871552e-11,-3.41116732696e-08,4.22574431349e-10
19184000000,1192,19184000000,world,-3.18777948932e-10,8.4206547814e-12,5.38750264959e-10,2.96528553779e-11,-2.18241673425e-08,-5.62054822697e-12
19200000000,1193,19200000000,world,-2.07019514163e-10,-1.46181191971e-11,3.44773681715e-10,-2.42946417183e-11,-1.74543036179e-08,-2.98041828636e-10
19216000000,1194,19216000000,world,-1.6518539369e-10,6.44238859097e-12,2.75820498671e-10,3.64858991594e-11,-1.39647608271e-08,-3.46047917181e-10
19232000000,1195,19232000000,world,-1.30706365394e-10,7.19936141202e-12,2.20670333259e-10,3.40030468964e-11,-1.11762366299e-08,-5.22536576673e-10
19248000000,1196,19248000000,world,-1.03700775773e-10,-1.28738287005e-11,1.76547922528e-10,-3.32898808305e-11,-8.9436520955e-09,-7.83267771096e-10
19264000000,1197,19264000000,world,-8.24774896186e-11,-2.10690452515e-11,1.41244192637e-10,-6.21434748817e-11,-7.15641038787e-09,-9.23390777673e-10
19280000000,1198,19280000000,world,-6.56143201833e-11,-1.90941348572e-11,1.12999499683e-10,-5.7371190289e-11,-5.72625526942e-09,-8.43310628051e-10
19296000000,1199,19296000000,world,-5.11119673476e-11,-7.64457159325e-12,9.04121959594e-11,-2.13221479225e-11,-4.5852388516e-09,-5.56000803348e-10
19312000000,1200,19312000000,world,-4.05203959778e-11,8.17674491882e-12,7.23314392584e-11,2.90362209898e-11,-3.66932336156e-09,-2.12447719705e-10
19312000000,1201,19328000000,world,-4.05203959778e-11,8.17674491882e-12,7.23314392584e-11,2.90362209898e-11,-3.66932336156e-09,-2.12447719705e-10
19344000000,1202,19344000000,world,-2.92516650756e-11,-5.38108351209e-12,4.62606092297e-11,-1.36088429504e-11,-2.33817166874e-09,1.05718398016e-11
19360000000,1203,19360000000,world,-2.33067099484e-11,-6.66773640193e-12,3.70098605638e-11,-1.71738072362e-11,-1.87083149501e-09,1.78830354505e-10
19376000000,1204,19376000000,world,-1.80114889464e-11,4.87691677265e-12,2.96122901512e-11,2.02511705192e-11,-1.49861515608e-09,4.74815118063e-10
19392000000,1205,19392000000,world,-1.58983064488e-11,1.0300579182e-11,2.3674251681e-11,3.82534932135e-11,-1.19431454941e-09,7.05319029006e-10
19392000000,1206,19408000000,world,-1.1420980982e-11,1.19719222692e-11,1.8951718616e-11,4.43945613655e-11,-9.59432553238e-10,9.00111990534e-10
19424000000,1207,19424000000,world,-9.10997316604e-12,1.25632094688e-11,1.51614115955e-11,4.64492176455e-11,-7.67628130296e-10,9.72848859578e-10
19440000000,1208,19440000000,world,-7.10671520346e-12,1.1984256976e-11,1.21308007655e-11,4.40693637464e-11,-6.14659330982e-10,9.151826884e-10
19456000000,1209,19456000000,world,-5.05677989757e-12,4.59910761362e-12,9.71126512621e-12,1.96766652175e-11,-4.93659107324e-10,7.3072815912e-10
19472000000,1210,19472000000,world,-3.78489261373e-12,2.77317421445e-12,7.77187601133e-12,1.25511691884e-11,-3.95730927397e-10,5.27932123293e-10
19488000000,1211,19488000000,world,-3.60858684328e-12,5.60346854452e-12,6.21136716121e-12,1.99184912743e-11,-3.14799029679e-10,3.14679771126e-10
19504000000,1212,19504000000,world,-3.6752071568e-12,1.71734719989e-12,4.96192020127e-12,5.86070154539e-12,-2.49416307974e-10,2.58865256129e-11
19520000000,1213,19520000000,world,-3.08095408672e-12,-4.46662799693e-12,3.96866784001e-12,-1.54495453465e-11,-1.99103285725e-10,-2.78061589985e-10
19520000000,1214,19536000000,world,-2.03324237904e-12,-3.69475527179e-12,3.17947537963e-12,-1.4582996498e-11,-1.60609698183e-10,-5.11131969645e-10
19552000000,1215,19552000000,world,-1.99391917658e-12,-2.79951842623e-12,2.54059451471e-12,-1.32325046811e-11,-1.27357254368e-10,-7.30441521558e-10
19568000000,1216,19568000000,world,-6.55826574831e-13,-1.27294249055e-11,2.04232853708e-12,-4.56598777215e-11,-1.0477570794e-10,-9.49482633555e-10
19584000000,1217,19584000000,world,-2.37441192103e-13,-1.54619945374e-11,1.63761754004e-12,-5.48817033364e-11,-8.4702607902e-11,-1.05363512922e-09
19600000000,1218,19600000000,world,-2.49949571483e-14,-1.30964555014e-11,1.31189588678e-12,-4.72249807074e-11,-6.82711007817e-11,-1.00740893514e-09
19616000000,1219,19616000000,world,1.05637481982e-13,-8.54349959224e-12,1.05065634406e-12,-3.2009667793e-11,-5.50033232682e-11,-8.47417061983e-10
19632000000,1220,19632000000,world,-5.54378494096e-14,-4.55007069126e-12,8.38296235527e-13,-1.81664747587e-11,-4.35721382189e-11,-6.2939910369e-10
19648000000,1221,19648000000,world,-3.03830936037e-13,-4.09564865842e-12,6.68254749252e-13,-1.52103866587e-11,-3.40595959317e-11,-3.86944501219e-10
19664000000,1222,19664000000,world,-2.47279577896e-13,-1.98232701006e-12,5.34361597984e-13,-6.83915841168e-12,-2.72349370627e-11,-1.07676310627e-10
19664000000,1223,19680000000,world,-2.13820914924e-13,1.10467835451e-12,4.26784920697e-13,4.70306989084e-12,-2.17376784323e-11,1.91984619922e-10
19696000000,1224,19696000000,world,-5.2447952505e-13,4.51189817409e-12,3.37486217641e-13,1.71886623897e-11,-1.63049110558e-11,4.82590411892e-10
19696000000,1225,19712000000,world,-5.2447952505e-13,4.51189817409e-12,3.37486217641e-13,1.71886623897e-11,-1.63049110558e-11,4.82590411892e-10
19712000000,1226,19728000000,world,-8.86066939006e-13,1.10409650307e-11,2.08698202282e-13,4.05382275736e-11,-8.73883975962e-12,9.48920313525e-10
19744000000,1227,19744000000,world,-5.12162481641e-13,1.29826630044e-11,1.68674590643e-13,4.73651161364e-11,-7.59164627355e-12,1.06937150405e-09
19744000000,1228,19760000000,world,-5.55381550637e-13,1.40958855996e-11,1.32404428158e-13,5.08197771786e-11,-5.62865984002e-12,1.06661016391e-09
19760000000,1229,19776000000,world,-3.6776644222e-13,1.15704761185e-11,1.07078554678e-13,4.20629006578e-11,-4.73595814156e-12,9.30027739991e-10
19792000000,1230,19792000000,world,-1.11698972495e-13,7.44121763005e-12,8.79478852384e-14,2.76169734655e-11,-4.35210611429e-12,6.86444701636e-10
19792000000,1231,19808000000,world,9.44857298721e-14,2.83330580306e-12,7.20527026508e-14,1.12766189493e-11,-4.0476181951e-12,3.80141149939e-10
19824000000,1232,19824000000,world,2.02689938809e-13,-1.25059542161e-12,5.94576273559e-14,-3.53351748414e-12,-3.63212184955e-12,5.73022450956e-11
19840000000,1233,19840000000,world,2.2154131075e-13,-4.23511455485e-12,4.8717711994e-14,-1.47790560337e-11,-3.08601394256e-12,-2.44717018839e-10
19856000000,1234,19856000000,world,1.61908136133e-13,-6.04645068623e-12,3.91653885247e-14,-2.20781099904e-11,-2.42072066229e-12,-5.02201730837e-10
19872000000,1235,19872000000,world,4.30433731506e-14,-6.64922025243e-12,3.00089929811e-14,-2.5257749662e-11,-1.67487727788e-12,-7.05344738586e-10
19872000000,1236,19888000000,world,-5.49559147647e-14,-7.76765704801e-12,2.36298598845e-14,-2.97287106049e-11,-1.067419453e-12,-8.58731555987e-10
19888000000,1237,19904000000,world,-5.49559147647e-14,-7.76765704801e-12,2.36298598845e-14,-2.97287106049e-11,-1.067419453e-12,-8.58731555987e-10
19920000000,1238,19920000000,world,-5.99602652287e-14,-9.85865501063e-12,1.97610977145e-14,-3.68684556563e-11,-8.05313852238e-13,-9.54678922835e-10
19936000000,1239,19936000000,world,5.49963997024e-13,-1.41328017617e-11,2.2523297597e-14,-5.0265764636e-11,-2.4839705852e-12,-9.63479832797e-10
19952000000,1240,19952000000,world,3.1713230711e-13,-6.52438949118e-12,1.41695101059e-14,-2.42771901455e-11,-1.48296100809e-12,-6.12633058194e-10
19952000000,1241,19968000000,world,4.01752952682e-13,-2.02238395808e-12,1.24727650283e-14,-8.42354556197e-12,-1.64090735103e-12,-3.30551709414e-10
19984000000,1242,19984000000,world,4.01752952682e-13,-2.02238395808e-12,1.24727650283e-14,-8.42354556197e-12,-1.64090735103e-12,-3.30551709414e-10
19984000000,1243,20000000000,world,1.16440148098e-13,3.79977690635e-12,6.21143522168e-15,1.30932851681e-11,-6.16120449473e-13,1.93010375558e-10
20016000000,1244,20016000000,world,-2.43329057097e-13,3.01221865537e-12,1.36790717006e-15,1.18755512061e-11,5.43258023981e-13,3.8717676486e-10
20016000000,1245,20032000000,world,-4.52416118699e-13,4.84883574576e-12,-1.99498488002e-15,1.87876251138e-11,1.22629407968e-12,5.71823247932e-10
20048000000,1246,20048000000,world,-5.48331538844e-13,8.30999865079e-12,-3.93209248177e-15,3.05996983138e-11,1.55208397031e-12,7.29777877122e-10
20064000000,1247,20064000000,world,-6.63771145436e-13,8.83209754148e-12,-5.77571520521e-15,3.27692730351e-11,1.93710152933e-12,8.14290946965e-10
20080000000,1248,20080000000,world,-8.65342033026e-13,9.79693367848e-12,-8.34543377619e-15,3.59026404953e-11,2.5768280696e-12,8.33378097134e-10
20096000000,1249,20096000000,world,-2.79146561959e-13,1.05756390918e-11,-3.11968923964e-15,3.80087393689e-11,7.96677793993e-13,7.82623555468e-10
20112000000,1250,20112000000,world,-1.42379685e-13,7.46328205943e-12,-1.64607498243e-15,2.73128531553e-11,3.85674055287e-13,6.28994372641e-10
20128000000,1251,20128000000,world,1.4445621749e-13,3.47178388172e-12,1.66535340469e-15,1.34177252578e-11,-4.86813765162e-13,4.04098362561e-10
20144000000,1252,20144000000,world,1.4445621749e-13,3.47178388172e-12,1.66535340469e-15,1.34177252578e-11,-4.86813765162e-13,4.04098362561e-10
20160000000,1253,20160000000,world,3.25586461452e-13,-2.60939447862e-12,3.96432179784e-15,-8.68392352958e-12,-1.02539374137e-12,-8.44411781344e-11
20176000000,1254,20176000000,world,3.25586461452e-13,-2.60939447862e-12,3.96432179784e-15,-8.68392352958e-12,-1.02539374137e-12,-8.44411781344e-11
20192000000,1255,20192000000,world,4.79803659544e-14,-4.35781994517e-12,1.38638742327e-15,-1.67359863481e-11,-1.63306296281e-13,-4.9063287857e-10
20208000000,1256,20208000000,world,4.56179541834e-14,-7.21522653956e-12,2.35889717971e-15,-2.67300271767e-11,-1.56149625971e-13,-6.58986710046e-10
20224000000,1257,20224000000,world,4.71524501217e-14,-7.61813319014e-12,1.87216928899e-15,-2.86310242529e-11,-1.62212266832e-13,-7.59698398524e-10
20240000000,1258,20240000000,world,-1.66750017505e-14,-8.0078919827e-12,1.56395971928e-15,-3.01071098999e-11,4.4927620245e-14,-8.00342505382e-10
20256000000,1259,20256000000,world,8.1785045014e-14,-1.21922661876e-11,2.53636757574e-15,-4.30377021222e-11,-2.62352643001e-13,-7.80005999651e-10
20272000000,1260,20272000000,world,3.95018723241e-13,-8.15188227505e-12,5.42415582428e-15,-2.94493184635e-11,-1.22332264829e-12,-6.26991398147e-10
20288000000,1261,20288000000,world,5.57267426402e-13,-3.71592824977e-12,6.46648842662e-15,-1.41376392197e-11,-1.72022615726e-12,-3.97489699972e-10
20288000000,1262,20304000000,world,5.57267426402e-13,-3.71592824977e-12,6.46648842662e-15,-1.41376392197e-11,-1.72022615726e-12,-3.97489699972e-10
20320000000,1263,20320000000,world,1.30658682238e-13,3.17049803074e-12,8.60661221153e-16,1.03109563398e-11,-4.02217210987e-13,6.49940428402e-11
20320000000,1264,20336000000,world,-6.4245305695e-14,2.79178843544e-12,-1.02204651195e-15,1.02358460261e-11,1.96303064441e-13,2.38253603681e-10
20352000000,1265,20352000000,world,-6.38314965644e-14,3.03147819708e-12,-8.06982334561e-16,1.1970854189e-11,1.95394667345e-13,3.92742915312e-10
20368000000,1266,20368000000,world,-1.87324802097e-13,4.45159433067e-12,-2.74643473477e-15,1.72736808652e-11,5.73848354597e-13,5.28973700873e-10
20384000000,1267,20384000000,world,-5.59215268359e-13,5.75249765408e-12,-6.52172655797e-15,2.19839531599e-11,1.7167590532e-12,6.30687728605e-10
20400000000,1268,20400000000,world,-8.88726589245e-13,8.3338427233e-12,-1.01216536524e-14,3.04670794173e-11,2.72982240298e-12,6.97369958076e-10
20416000000,1269,20416000000,world,-8.88726589245e-13,8.3338427233e-12,-1.01216536524e-14,3.04670794173e-11,2.72982240298e-12,6.97369958076e-10
20432000000,1270,20432000000,world,-1.55891592477e-13,7.17982511672e-12,-2.78903558488e-15,2.60761492747e-11,4.78177939851e-13,5.73906969667e-10
20448000000,1271,20448000000,world,2.46980500028e-13,2.70784962972e-12,1.52987058748e-15,1.0847812232e-11,-7.60973910228e-13,3.75076107967e-10
20464000000,1272,20464000000,world,4.35086907081e-13,-9.75284035727e-13,4.11961408541e-15,-2.00441209055e-12,-1.34003446343e-12,1.62774685806e-10
20480000000,1273,20480000000,world,3.29729449154e-13,-2.96070541207e-12,3.45203644605e-15,-9.39400368513e-12,-1.01699924168e-12,-2.39372447802e-11
20496000000,1274,20496000000,world,1.86888470647e-13,-2.00014063657e-12,1.90681596027e-15,-7.35072997705e-12,-5.77964014843e-13,-1.73411600178e-10
20496000000,1275,20512000000,world,4.52592817732e-08,7.89908797614e-11,-7.6562209631e-08,-4.91556853046e-09,3.87784132214e-06,-4.61530663894e-10
20512000000,1276,20528000000,world,-9.04030722636e-09,-4.92196305447e-11,1.5312559392e-08,8.7317855291e-10,-7.75603744896e-07,-7.86736992334e-10
20544000000,1277,20544000000,world,-7.24124975854e-09,-3.42688261673e-11,1.22499588654e-08,7.12231008426e-10,-6.20455345808e-07,-9.82355771191e-10
20560000000,1278,20560000000,world,-5.80022585733e-09,1.5858883407e-13,9.799892491e-09,6.55554915542e-10,-4.96342067185e-07,-8.32162649106e-10
20576000000,1279,20576000000,world,-4.63536228258e-09,-9.51967874338e-12,7.83996289291e-09,4.93679818149e-10,-3.97088457736e-07,-7.68042403181e-10
20592000000,1280,20592000000,world,-3.70265213079e-09,-1.20379475443e-11,6.27202614785e-09,3.80753790087e-10,-3.17688087207e-07,-6.7477494845e-10
20608000000,1281,20608000000,world,-2.96406676529e-09,-1.37949598233e-11,5.01760232869e-09,2.91406970051e-10,-2.54144493924e-07,-5.70797341041e-10
20608000000,1282,20624000000,world,-2.37646868353e-09,-2.23504180967e-11,4.01403184781e-09,1.97856406301e-10,-2.0329957728e-07,-4.49753934319e-10
20624000000,1283,20640000000,world,-1.90386478529e-09,-7.14841900309e-14,3.2111961408e-09,2.16286122905e-10,-1.6263139411e-07,1.81846749437e-11
20656000000,1284,20656000000,world,-1.52074238146e-09,2.99079234211e-11,2.56897679242e-09,2.70108993111e-10,-1.30112319886e-07,5.70742470648e-10
20672000000,1285,20672000000,world,-1.21401947561e-09,1.40678517026e-11,2.05520745463e-09,1.86717082823e-10,-1.04097770384e-07,6.75948629795e-10
20688000000,1286,20688000000,world,-9.74090253345e-10,-1.18885666759e-11,1.64414103365e-09,7.73954823768e-11,-8.32693935707e-08,5.80643206627e-10
20704000000,1287,20704000000,world,-7.77272652837e-10,4.16376675543e-12,1.31533023957e-09,1.06348475153e-10,-6.66216541004e-08,7.38656656395e-10
20704000000,1288,20720000000,world,-6.21499762876e-10,6.94193664771e-12,1.0522665616e-09,9.81321965956e-11,-5.32982959326e-08,8.70049498169e-10
20736000000,1289,20736000000,world,-4.9626871023e-10,8.30176998104e-12,8.41821923809e-10,8.84930742769e-11,-4.26414959745e-08,9.16727165284e-10
20736000000,1290,20752000000,world,-3.96135693575e-10,8.22413981835e-12,6.7346563891e-10,7.66467792645e-11,-3.41158986095e-08,8.76231498741e-10
20768000000,1291,20768000000,world,-3.17397210117e-10,1.1508382167e-11,5.38767370347e-10,7.70742043077e-11,-2.72912185222e-08,7.59197943066e-10
20784000000,1292,20784000000,world,-2.5543165962e-10,7.50214080373e-12,4.3099911222e-10,5.56635044089e-11,-2.18283217298e-08,5.01537485646e-10
20800000000,1293,20800000000,world,-2.05302416485e-10,-3.96871231917e-12,3.44791131847e-10,1.18565071034e-11,-1.74597276226e-08,1.57858677801e-10
20816000000,1294,20816000000,world,-1.64140414336e-10,-6.00089800009e-12,2.75834249101e-10,-7.43897746956e-13,-1.3968096152e-08,-9.42304016855e-11
20832000000,1295,20832000000,world,-1.31342149107e-10,1.77577641594e-12,2.20666415282e-10,1.88293618599e-11,-1.11743752989e-08,-2.47915479088e-10
20848000000,1296,20848000000,world,-1.06285185291e-10,1.01758578508e-11,1.76520084609e-10,4.07232742882e-11,-8.93577684184e-09,-4.59397846177e-10
20864000000,1297,20864000000,world,-1.06285185291e-10,1.01758578508e-11,1.76520084609e-10,4.07232742882e-11,-8.93577684184e-09,-4.59397846177e-10
20880000000,1298,20880000000,world,-6.55083005196e-11,-1.96058318548e-11,1.13001144645e-10,-6.04649765197e-11,-5.72663245397e-09,-1.07759033269e-09
20896000000,1299,20896000000,world,-5.21697838135e-11,-1.94373306424e-11,9.04043949073e-11,-6.17344384951e-11,-4.5820337323e-09,-1.12028828582e-09
20912000000,1300,20912000000,world,-4.16531724177e-11,-9.46876504403e-12,7.23231450496e-11,-3.07997801248e-11,-3.66587982365e-09,-9.57694405045e-10
20928000000,1301,20928000000,world,-3.32469099407e-11,-2.3213526327e-12,5.78589177018e-11,-8.08095850669e-12,-2.93293432777e-09,-7.40939662186e-10
20944000000,1302,20944000000,world,-2.68966384368e-11,-4.55942721379e-12,4.62846505535e-11,-1.46855211336e-11,-2.34543013875e-09,-5.59287438755e-10
20960000000,1303,20960000000,world,-2.22484690118e-11,-5.1854608846e-12,3.70203761698e-11,-1.58645489099e-11,-1.87409707988e-09,-3.40383275525e-10
20976000000,1304,20976000000,world,-1.83120419261e-11,-1.97754670508e-12,2.96106585598e-11,-4.55426586723e-12,-1.49769785187e-09,-5.9160070921e-11
20992000000,1305,20992000000,world,-1.46496412086e-11,-2.26239117925e-12,2.36887881906e-11,-3.89328246819e-12,-1.19815822592e-09,2.45956748129e-10
21008000000,1306,21008000000,world,-1.23015303631e-11,7.0177040131e-12,1.89438514609e-11,2.70913518196e-11,-9.56739149804e-10,6.12029875838e-10
21024000000,1307,21024000000,world,-9.27104166133e-12,1.2332218757e-11,1.51598894514e-11,4.56058811785e-11,-7.67138405433e-10,9.53683607962e-10
21040000000,1308,21040000000,world,-7.25421111266e-12,1.68295634189e-11,1.21285754161e-11,6.08413144067e-11,-6.14209729747e-10,1.17325467708e-09
21056000000,1309,21056000000,world,-5.90591711911e-12,1.61005086927e-11,9.7011626212e-12,5.86430766528e-11,-4.91052950474e-10,1.21094188408e-09
21072000000,1310,21072000000,world,-4.78786924099e-12,8.16459846425e-12,7.76142598891e-12,3.29362633537e-11,-3.92648045508e-10,1.08472181532e-09
21088000000,1311,21088000000,world,-3.60321111301e-12,7.83548300304e-12,6.21038972936e-12,3.07708613926e-11,-3.1481575848e-10,9.22959165609e-10
21104000000,1312,21104000000,world,-2.99521829535e-12,7.50967106412e-12,4.96787071542e-12,2.82852848274e-11,-2.51508194063e-10,7.06153007875e-10
21120000000,1313,21120000000,world,-2.77373344517e-12,4.99396457272e-12,3.97078749482e-12,1.8536082741e-11,-2.00043957113e-10,4.19638443406e-10
21136000000,1314,21136000000,world,-2.31698337787e-12,4.46569523273e-12,3.17558103469e-12,1.4753069374e-11,-1.59734647563e-10,9.39580530474e-11
21152000000,1315,21152000000,world,-1.77483054786e-12,-2.84024565601e-13,2.54186861654e-12,-2.55704115938e-12,-1.28030119388e-10,-2.88353570483e-10
21168000000,1316,21168000000,world,-1.17325866576e-12,-6.41861437308e-12,2.03669791944e-12,-2.4272487279e-11,-1.03188753912e-10,-6.84956711316e-10
21184000000,1317,21184000000,world,-6.29182929687e-13,-1.25367462169e-11,1.63310706088e-12,-4.56189554031e-11,-8.35042042507e-11,-1.03291820858e-09
21200000000,1318,21200000000,world,-1.47744992189e-13,-1.69509289907e-11,1.310889073e-12,-6.09217181066e-11,-6.78963999061e-11,-1.26821100908e-09
21216000000,1319,21216000000,world,1.28638895375e-13,-1.8345842928e-11,1.05177926007e-12,-6.57651403808e-11,-5.50783127128e-11,-1.3420953982e-09
21216000000,1320,21232000000,world,1.40050015808e-13,-1.36571705731e-11,8.41341377045e-13,-5.05001252744e-11,-4.41757208054e-11,-1.24118816437e-09
21248000000,1321,21248000000,world,2.08133081999e-13,-1.03352015718e-11,6.73835046356e-13,-3.87984424098e-11,-3.56355536485e-11,-1.03075647648e-09
21248000000,1322,21264000000,world,6.69766134327e-14,-8.62523478409e-12,5.38101024503e-13,-3.15990781977e-11,-2.82039772481e-11,-7.37869686605e-10
21264000000,1323,21280000000,world,9.84833587125e-14,-4.07019590271e-12,4.30436470158e-13,-1.50426928994e-11,-2.27002857116e-11,-3.70586520193e-10
21296000000,1324,21296000000,world,9.84833587125e-14,-4.07019590271e-12,4.30436470158e-13,-1.50426928994e-11,-2.27002857116e-11,-3.70586520193e-10
21312000000,1325,21312000000,world,-3.4360647614e-13,5.05192095605e-12,2.70778038369e-13,1.83811571876e-11,-1.32785822353e-11,4.06145736198e-10
21328000000,1326,21328000000,world,-7.115445753e-13,8.72435517857e-12,2.11566291586e-13,3.19736457079e-11,-9.27949663182e-12,7.40119223887e-10
21344000000,1327,21344000000,world,-8.23729714258e-13,1.13810722898e-11,1.65540728178e-13,4.19581274386e-11,-6.64122022248e-12,1.00548129389e-09
21360000000,1328,21360000000,world,-7.60311215549e-13,1.30471757167e-11,1.31052049882e-13,4.8277530702e-11,-4.99286112112e-12,1.18103570032e-09
21376000000,1329,21376000000,world,-7.8675863888e-13,1.37818042624e-11,1.02528699048e-13,5.10005587399e-11,-3.44788575877e-12,1.24865698635e-09
21392000000,1330,21392000000,world,-5.96748420789e-13,1.59033055445e-11,8.17292303023e-14,5.73080227707e-11,-2.85366061378e-12,1.19971491302e-09
21408000000,1331,21408000000,world,-5.96748420789e-13,1.59033055445e-11,8.17292303023e-14,5.73080227707e-11,-2.85366061378e-12,1.19971491302e-09
21424000000,1332,21424000000,world,-2.71501927075e-14,7.0519824288e-12,5.67470076097e-14,2.64415369493e-11,-2.91517758944e-12,6.92965791813e-10
21440000000,1333,21440000000,world,-2.71501927075e-14,7.0519824288e-12,5.67470076097e-14,2.64415369493e-11,-2.91517758944e-12,6.92965791813e-10
21456000000,1334,21456000000,world,1.83618913741e-13,1.68939900991e-12,4.82220719658e-14,7.36905738286e-12,-2.97082748467e-12,3.27637005206e-10
21472000000,1335,21472000000,world,2.75844941461e-13,-2.74740363695e-12,4.02063742304e-14,-8.83605087963e-12,-2.77283725173e-12,-4.11952203921e-11
21488000000,1336,21488000000,world,1.4597312735e-13,-7.10739759622e-12,2.60108316829e-14,-2.63297067956e-11,-1.67792752823e-12,-6.49242615899e-10
21504000000,1337,21504000000,world,8.25342363507e-15,-7.48670381063e-12,2.03005835229e-14,-2.88817127921e-11,-1.01216140876e-12,-8.63357501606e-10
21520000000,1338,21520000000,world,-5.91932119249e-14,-9.42444839915e-12,1.6217095065e-14,-3.59665163394e-11,-6.09530177389e-13,-1.02560368376e-09
21536000000,1339,21536000000,world,-5.91932119249e-14,-9.42444839915e-12,1.6217095065e-14,-3.59665163394e-11,-6.09530177389e-13,-1.02560368376e-09
21552000000,1340,21552000000,world,-2.6357943388e-14,-1.22462587679e-11,1.45819134564e-14,-4.53570228799e-11,-5.48998875332e-13,-1.11681888079e-09
21568000000,1341,21568000000,world,4.63962789607e-13,-1.19939299674e-11,1.50426392626e-14,-4.33189983068e-11,-1.83390454244e-12,-9.21019997516e-10
21584000000,1342,21584000000,world,3.46211437603e-13,-6.39754720188e-12,1.14374217078e-14,-2.39990677452e-11,-1.38462376517e-12,-6.31037562211e-10
21600000000,1343,21600000000,world,3.46211437603e-13,-6.39754720188e-12,1.14374217078e-14,-2.39990677452e-11,-1.38462376517e-12,-6.31037562211e-10
21616000000,1344,21616000000,world,4.73733549269e-13,3.14446940672e-12,9.0532931448e-15,1.00560540688e-11,-1.65718847963e-12,3.77752155857e-11
21632000000,1345,21632000000,world,1.09469118766e-13,4.98285196848e-12,4.47265852362e-15,1.74990289766e-11,-4.97466806213e-13,3.04664055636e-10
21648000000,1346,21648000000,world,-2.77405773144e-13,3.13498150653e-12,-1.4922869049e-16,1.30677375235e-11,7.25783269137e-13,5.13837403974e-10
21664000000,1347,21664000000,world,-2.77405773144e-13,3.13498150653e-12,-1.4922869049e-16,1.30677375235e-11,7.25783269137e-13,5.13837403974e-10
21680000000,1348,21680000000,world,-6.83351478818e-13,1.09323969995e-11,-6.2253506908e-15,3.98492167401e-11,2.01963620456e-12,8.96397678036e-10
21696000000,1349,21696000000,world,-1.00194803209e-12,1.12457374345e-11,-1.03492008918e-14,4.12770312532e-11,3.01717232487e-12,9.66795792844e-10
21712000000,1350,21712000000,world,-5.38117807834e-13,1.48698903305e-11,-6.42520592078e-15,5.25044509019e-11,1.60370839567e-12,9.53614088859e-10
21728000000,1351,21728000000,world,-3.32290608178e-13,1.00708606244e-11,-3.89491343424e-15,3.65324969294e-11,9.79832119507e-13,7.98173868019e-10
21744000000,1352,21744000000,world,-3.32290608178e-13,1.00708606244e-11,-3.89491343424e-15,3.65324969294e-11,9.79832119507e-13,7.98173868019e-10
21760000000,1353,21760000000,world,3.0201023144e-13,-1.92277296989e-13,3.38568725447e-15,1.00979694419e-12,-9.52179467712e-13,2.52027067619e-10
21776000000,1354,21776000000,world,3.0201023144e-13,-1.92277296989e-13,3.38568725447e-15,1.00979694419e-12,-9.52179467712e-13,2.52027067619e-10
21792000000,1355,21792000000,world,4.83482001577e-13,-4.39133856915e-12,5.63199768505e-15,-1.52734640871e-11,-1.5012414902e-12,-2.45290827782e-10
21808000000,1356,21808000000,world,3.0558469159e-14,-1.55600397349e-12,1.2028495636e-15,-7.53727673285e-12,-1.07998947953e-13,-4.19619836843e-10
21824000000,1357,21824000000,world,-2.43875510427e-13,-4.94335513362e-12,-1.0440028099e-15,-1.93231120111e-11,7.33899331314e-13,-6.0955198014e-10
21840000000,1358,21840000000,world,-1.3063323848e-13,-9.73955438191e-12,3.99833546156e-16,-3.5277579069e-11,3.87934028976e-13,-7.63648866941e-10
21856000000,1359,21856000000,world,5.55412847317e-14,-8.52635445709e-12,1.77932486548e-15,-3.18008128491e-11,-1.83611469196e-13,-8.12144504178e-10
21872000000,1360,21872000000,world,-2.97716782424e-13,-6.44395692212e-12,-1.60522110785e-15,-2.51950524903e-11,9.08634696516e-13,-7.9554173376e-10
21888000000,1361,21888000000,world,4.92543764181e-13,-1.0451810202e-11,6.78391140873e-15,-3.73288040089e-11,-1.52043120204e-12,-7.36713415298e-10
21904000000,1362,21904000000,world,4.92543764181e-13,-1.0451810202e-11,6.78391140873e-15,-3.73288040089e-11,-1.52043120204e-12,-7.36713415298e-10
21920000000,1363,21920000000,world,5.12801588994e-13,-3.32340040361e-12,5.50561257141e-15,-1.25780644996e-11,-1.58143132921e-12,-3.45144322051e-10
21936000000,1364,21936000000,world,2.75042914385e-13,3.98819663421e-13,2.63557343097e-15,6.434082756e-13,-8.49710924079e-13,-9.41345807678e-11
21952000000,1365,21952000000,world,2.75042914385e-13,3.98819663421e-13,2.63557343097e-15,6.434082756e-13,-8.49710924079e-13,-9.41345807678e-11
21968000000,1366,21968000000,world,-9.04083094302e-09,-4.3864562009e-12,1.53125210706e-08,1.02161621085e-09,-7.75600668789e-07,5.44710844414e-10
21984000000,1367,21984000000,world,-7.24205744896e-09,-2.87008069221e-12,1.22499245108e-08,8.19513131176e-10,-6.20451689746e-07,4.70490987725e-10
22000000000,1368,22000000000,world,-5.80206511004e-09,-1.35448484773e-11,9.79985830248e-09,6.20374306492e-10,-4.96335487752e-07,3.56184609885e-10
22016000000,1369,22016000000,world,-4.63854045698e-09,1.99015662472e-11,7.8399137073e-09,5.94312215183e-10,-3.97077941441e-07,6.09842962745e-10
22032000000,1370,22032000000,world,-3.70223409252e-09,1.13089072038e-11,6.27201628146e-09,4.61427127601e-10,-3.17688771133e-07,5.46809107069e-10
22048000000,1371,22048000000,world,-2.96163815686e-09,-3.10889806275e-11,5.01761977135e-09,2.41883306409e-10,-2.5415148319e-07,1.26749395581e-10
22064000000,1372,22064000000,world,-2.37886171321e-09,-1.44981631594e-11,4.01400021782e-09,2.26047113896e-10,-2.03291842584e-07,1.26570032017e-10
22080000000,1373,22080000000,world,-1.90770542086e-09,4.40421783319e-11,3.21114752461e-09,3.56548203667e-10,-1.62619276437e-07,4.20925197797e-10
22096000000,1374,22096000000,world,-1.5182594317e-09,2.48428893645e-12,2.56900004041e-09,1.81211660173e-10,-1.30119712553e-07,5.40206471983e-11
22112000000,1375,22112000000,world,-1.20856949228e-09,-2.86679608843e-11,2.05526313322e-09,4.67604706242e-11,-1.04114331869e-07,-3.51981486022e-10
22128000000,1376,22128000000,world,-9.71837637255e-10,-5.94051635783e-12,1.64415931674e-09,9.013557486e-11,-8.32761590988e-08,-3.3103975058e-10
22144000000,1377,22144000000,world,-7.81811630342e-10,1.30849626828e-11,1.3152830252e-09,1.27728691301e-10,-6.66075829351e-08,-2.73513377224e-10
22160000000,1378,22160000000,world,-6.22749777414e-10,-2.61575517592e-11,1.05225751104e-09,-1.40277899452e-11,-5.32943718958e-08,-5.15236783255e-10
22176000000,1379,22176000000,world,-6.22749777414e-10,-2.61575517592e-11,1.05225751104e-09,-1.40277899452e-11,-5.32943718958e-08,-5.15236783255e-10
22192000000,1380,22192000000,world,-3.9514919805e-10,2.2743353804e-11,6.73473363245e-10,1.1728979078e-10,-3.41188584542e-08,1.44548719255e-10
22208000000,1381,22208000000,world,-3.20757830471e-10,1.34565443716e-11,5.38733646456e-10,7.93008386469e-11,-2.7280839097e-08,1.55732445657e-10
22224000000,1382,22224000000,world,-2.58906581163e-10,-1.3667609773e-11,4.30967517721e-10,-1.35846531617e-11,-2.18176138482e-08,4.68934840266e-12
22240000000,1383,22240000000,world,-2.04319750728e-10,9.71436481162e-12,3.4479903918e-10,5.50902773365e-11,-1.74627020807e-08,2.4022947376e-10
22256000000,1384,22256000000,world,-1.60491091462e-10,1.51794069769e-11,2.75867377161e-10,6.79888053869e-11,-1.39792647866e-08,3.16784256076e-10
22272000000,1385,22272000000,world,-1.60491091462e-10,1.51794069769e-11,2.75867377161e-10,6.79888053869e-11,-1.39792647866e-08,3.16784256076e-10
22288000000,1386,22288000000,world,-1.05318529701e-10,7.93625001986e-12,1.76529861798e-10,3.75151750669e-11,-8.93872840119e-09,1.32714271523e-10
22304000000,1387,22304000000,world,-8.38473200602e-11,9.36484565495e-12,1.41227612075e-10,3.97377840109e-11,-7.1522385775e-09,1.55101070599e-10
22320000000,1388,22320000000,world,-8.38473200602e-11,9.36484565495e-12,1.41227612075e-10,3.97377840109e-11,-7.1522385775e-09,1.55101070599e-10
22336000000,1389,22336000000,world,-5.25364196601e-11,-6.48952458875e-12,9.03987075432e-11,-1.44125754444e-11,-4.58089031477e-09,-3.88071855032e-11
22352000000,1390,22352000000,world,-4.13675884163e-11,-9.35717237369e-12,7.2325569945e-11,-2.48172899451e-11,-3.66674904429e-09,-7.57108630631e-11
22368000000,1391,22368000000,world,-3.39522930505e-11,-3.86097070987e-12,5.78515613305e-11,-8.25918647314e-12,-2.93076111899e-09,-1.66464248914e-11
22384000000,1392,22384000000,world,-3.39522930505e-11,-3.86097070987e-12,5.78515613305e-11,-8.25918647314e-12,-2.93076111899e-09,-1.66464248914e-11
22400000000,1393,22400000000,world,-2.25514004263e-11,9.96784538188e-12,3.70155364754e-11,3.44864213915e-11,-1.87315747121e-09,1.37674121747e-10
22416000000,1394,22416000000,world,-1.78882247936e-11,2.52693822189e-12,2.96140762501e-11,1.02049543127e-11,-1.49899560276e-09,5.03810199126e-11
22432000000,1395,22432000000,world,-1.43216314239e-11,-5.89152314605e-12,2.36921450234e-11,-1.71797043925e-11,-1.19916442562e-09,-6.06936162466e-11
22448000000,1396,22448000000,world,-1.14403407286e-11,-4.11615615467e-12,1.89542980381e-11,-1.21481146559e-11,-9.59384750478e-10,-9.0488554421e-11
22464000000,1397,22464000000,world,-8.90761614581e-12,1.33074428888e-13,1.51650415056e-11,8.74230572273e-13,-7.68261570362e-10,-8.81212206532e-11
22480000000,1398,22480000000,world,-8.90761614581e-12,1.33074428888e-13,1.51650415056e-11,8.74230572273e-13,-7.68261570362e-10,-8.81212206532e-11
22496000000,1399,22496000000,world,-7.17772295458e-12,1.08116020955e-12,1.21315354019e-11,3.64926353012e-12,-6.14446405028e-10,-8.49584897666e-11
22512000000,1400,22512000000,world,-3.92458126286e-12,-2.03207176934e-12,7.77148166701e-12,-6.43902027726e-12,-3.95304594327e-10,-9.69604314129e-11
22528000000,1401,22528000000,world,-2.92254236997e-12,-2.82282686138e-12,6.21959495415e-12,-8.93981882641e-12,-3.16910480393e-10,-8.57012432489e-11
22544000000,1402,22544000000,world,-2.75743096724e-12,-3.58226797008e-12,4.97199134098e-12,-1.12226164097e-11,-2.52238520218e-10,-5.89075335413e-11
22560000000,1403,22560000000,world,-2.82089553007e-12,-2.81619951757e-13,3.97063140751e-12,-5.1973068621e-13,-1.99898025067e-10,1.42807130268e-11
22576000000,1404,22576000000,world,-2.47635708146e-12,5.2959043435e-12,3.1734034785e-12,1.741910966e-11,-1.59243632041e-10,1.05648485468e-10
22592000000,1405,22592000000,world,-1.85066850919e-12,4.88486495839e-12,2.54014291987e-12,1.62640441123e-11,-1.27797727034e-10,1.32385161083e-10
22608000000,1406,22608000000,world,-1.54419433e-12,-2.22514440889e-12,2.03242006539e-12,-6.1647043205e-12,-1.02044740152e-10,1.00684676475e-10
22624000000,1407,22624000000,world,-9.51799204218e-13,1.30414521331e-12,1.62812384762e-12,4.88023635907e-12,-8.2504338257e-11,1.09570013029e-10
22640000000,1408,22640000000,world,-7.10405127179e-13,1.13349736198e-12,1.30307295495e-12,4.32766899484e-12,-6.61624938372e-11,1.09891212117e-10
22656000000,1409,22656000000,world,-7.10405127179e-13,1.13349736198e-12,1.30307295495e-12,2.2677843761e-12,-4.63080934044e-06,9.87956084086e-11
22672000000,1410,22672000000,world,-3.66585984894e-13,5.49360597365e-13,8.34667215666e-13,2.32020912161e-12,-4.26098856482e-11,8.6011628948e-11
22688000000,1411,22688000000,world,-3.0886768998e-13,1.0730577434e-12,6.67638561667e-13,3.84062220892e-12,-3.40444192833e-11,6.98837972662e-11
22704000000,1412,22704000000,world,-3.07031962066e-13,7.59032523539e-13,5.33311390683e-13,2.66409854566e-12,-2.70475853383e-11,4.05524068311e-11
22720000000,1413,22720000000,world,-3.01392679351e-13,-1.09135629551e-13,4.26864520191e-13,-2.95363007162e-13,-2.14702753181e-11,2.5681071689e-12
22736000000,1414,22736000000,world,-2.68036457987e-13,-4.40731923116e-13,3.40925212579e-13,-1.55461541645e-12,-1.70967742002e-11,-3.16194332078e-11
22752000000,1415,22752000000,world,-2.36531665888e-13,-5.8499551693e-13,2.72178942791e-13,-2.196161971e-12,-1.3608347947e-11,-6.08493176961e-11
22768000000,1416,22768000000,world,-2.36531665888e-13,-5.8499551693e-13,2.72178942791e-13,-2.196161971e-12,-1.3608347947e-11,-6.08493176961e-11
22784000000,1417,22784000000,world,-7.40122994568e-14,-5.62481370968e-13,1.74872620902e-13,-2.38820603717e-12,-8.94619219437e-12,-1.00876309324e-10
22800000000,1418,22800000000,world,-1.21682522392e-14,-1.50375043758e-12,1.40631477585e-13,-5.3973825042e-12,-7.30578764803e-12,-1.11657781086e-10
22816000000,1419,22816000000,world,2.17673611467e-14,-1.84554388313e-12,1.13019705952e-13,-6.44972777924e-12,-5.93988337368e-12,-1.09091941272e-10
22832000000,1420,22832000000,world,6.20225014791e-14,-1.2442718076e-12,9.0331398307e-14,-4.44720621864e-12,-4.88733669945e-12,-8.9162750486e-11
22848000000,1421,22848000000,world,6.60680284733e-14,-1.84727778845e-13,7.25182392034e-14,-9.56883218937e-13,-3.96394021851e-12,-6.02826440371e-11
22864000000,1422,22864000000,world,3.12230868618e-14,4.38239767643e-14,5.78226578334e-14,-8.20485018016e-14,-3.10218804939e-12,-3.48629879475e-11
22880000000,1423,22880000000,world,-4.93397030065e-14,1.44912016431e-13,4.52897818392e-14,3.84059543507e-13,-2.2510600214e-12,-1.11667403352e-11
22896000000,1424,22896000000,world,-6.25573407564e-14,-2.35666383354e-14,3.59054383073e-14,-5.81354539441e-15,-1.73244574085e-12,1.02226397515e-11
22912000000,1425,22912000000,world,-5.06083846465e-14,-2.70914378105e-13,2.85702918644e-14,-6.38963091018e-13,-1.38707011067e-12,3.20393877043e-11
22928000000,1426,22928000000,world,-8.02846435913e-14,2.96841495621e-13,2.25356155076e-14,1.31178406167e-12,-9.83923109919e-13,6.00633377417e-11
22944000000,1427,22944000000,world,-1.61953871152e-13,1.52735596906e-12,1.69412796906e-14,5.33705587003e-12,-4.91092464851e-13,8.8998139258e-11
22960000000,1428,22960000000,world,-1.61953871152e-13,1.52735596906e-12,1.69412796906e-14,5.33705587003e-12,-4.91092464851e-13,8.8998139258e-11
22976000000,1429,22976000000,world,-4.10831236546e-14,1.37673242356e-12,1.18724882501e-14,4.97728853982e-12,-5.04051769941e-13,1.06378957725e-10
22992000000,1430,22992000000,world,-1.94740277181e-11,9.0109927229e-13,-1.33240949478e-11,6.87079398396e-12,-3.43495892385e-12,1.09143896608e-10
23008000000,1431,23008000000,world,-1.88252723231e-10,-4.46481538039e-13,-1.29614930547e-10,3.82208780216e-11,1.12053346889e-11,1.95549076507e-10
23024000000,1432,23024000000,world,-7.60172291763e-10,-3.42594091303e-12,-5.24609702969e-10,1.6615215357e-10,8.56266077101e-11,5.02036055898e-10
23040000000,1433,23040000000,world,-7.60172291763e-10,-3.42594091303e-12,-5.24609702969e-10,1.6615215357e-10,8.56266077101e-11,5.02036055898e-10
23056000000,1434,23056000000,world,-4.37112691755e-09,-2.34942275352e-11,-3.0217366226e-09,1.00799365262e-09,7.4602532837e-10,2.46516849696e-09
23072000000,1435,23072000000,world,-8.31034800136e-09,-4.43648029759e-11,-5.74556767621e-09,1.92419120562e-09,1.43702043866e-09,4.6261492034e-09
23088000000,1436,23088000000,world,-1.44707747459e-08,-7.41754393939e-11,-1.00058214857e-08,3.35155959785e-09,2.59631762456e-09,8.01394594893e-09
23104000000,1437,23104000000,world,-1.44707747459e-08,-7.41754393939e-11,-1.00058214857e-08,3.35155959785e-09,2.59631762456e-09,8.01394594893e-09
23120000000,1438,23120000000,world,-3.64911708797e-08,-1.68750615881e-10,-2.52334490889e-08,8.42947812044e-09,6.74482218616e-09,2.0116469131e-08
23136000000,1439,23136000000,world,-3.64911708797e-08,-1.68750615881e-10,-2.52334490889e-08,8.42947812044e-09,6.74482218616e-09,2.0116469131e-08
23152000000,1440,23152000000,world,-7.74890731753e-08,-3.36666791919e-10,-5.35831367037e-08,1.78622469864e-08,1.43756936066e-08,4.25339634615e-08
23168000000,1441,23168000000,world,-1.07711433689e-07,-4.61205303497e-10,-7.44817694095e-08,2.48124213691e-08,2.00176238964e-08,5.89717963297e-08
23184000000,1442,23184000000,world,-1.45970693611e-07,-6.21218165967e-10,-1.0093814056e-07,3.36093679688e-08,2.71781295453e-08,7.96925047227e-08
23200000000,1443,23200000000,world,-1.9352428037e-07,-8.24567625196e-10,-1.33821688817e-07,4.45440133437e-08,3.60690232211e-08,1.05330329519e-07
23216000000,1444,23216000000,world,-1.9352428037e-07,-8.24567625196e-10,-1.33821688817e-07,4.45440133437e-08,3.60690232211e-08,1.05330329519e-07
23232000000,1445,23232000000,world,-3.21867848561e-07,-1.38864476615e-09,-2.22574150699e-07,7.40539145242e-08,6.02429366379e-08,1.74062712993e-07
23248000000,1446,23248000000,world,-3.21867848561e-07,-1.38864476615e-09,-2.22574150699e-07,7.40539145242e-08,6.02429366379e-08,1.74062712993e-07
23264000000,1447,23264000000,world,-4.05481660755e-07,-1.76181383029e-09,-2.80394387346e-07,9.32728475776e-08,7.59026818168e-08,2.18589136802e-07
23280000000,1448,23280000000,world,-6.19024119893e-07,-2.7215013474e-09,-4.28063152212e-07,1.42333481123e-07,1.15978005937e-07,3.31765703369e-07
23296000000,1449,23296000000,world,-7.52055444174e-07,-3.32225239472e-09,-5.20056459647e-07,1.72886214892e-07,1.4088924587e-07,4.02017750796e-07
23312000000,1450,23312000000,world,-9.04723265523e-07,-4.01332923095e-09,-6.25628254965e-07,2.07942535139e-07,1.6942433585e-07,4.82487858685e-07
23328000000,1451,23328000000,world,0.00010131716443,4.48640167616e-07,6.99448905645e-05,1.94743379491e-08,1.49489938561e-05,6.47143768057e-07
23344000000,1452,23344000000,world,-1.24065788342e-06,-1.2823485502e-09,-9.56219940342e-07,2.94597722779e-07,8.03872412148e-06,7.05527546521e-07
23360000000,1453,23360000000,world,9.70379407416e-05,9.40758216721e-08,7.49378686306e-05,1.87228755648e-07,1.28916754108e-05,8.22208195494e-07
23376000000,1454,23376000000,world,-1.74153420867e-06,-2.68260513595e-09,-1.19786815055e-06,3.95020139509e-07,-7.95599550995e-07,9.39340056273e-07
23392000000,1455,23392000000,world,0.000100554948494,1.54597636683e-07,6.90487556136e-05,3.04623394012e-07,1.39488346677e-05,1.15614216042e-06
23408000000,1456,23408000000,world,-2.37189807947e-06,3.13124582728e-09,-1.53272545282e-06,5.53646174542e-07,-7.6704533863e-08,1.36317966662e-06
23424000000,1457,23424000000,world,0.000101867924142,-1.41942772698e-07,6.56710938041e-05,5.31917903731e-07,1.63740035096e-05,1.52292644291e-06
23440000000,1458,23440000000,world,-3.15044899208e-06,2.65503353689e-09,-1.91318547884e-06,6.97792023011e-07,2.22734042833e-07,1.75118931471e-06
23456000000,1459,23456000000,world,-3.15044899208e-06,2.65503353689e-09,-1.91318547884e-06,6.97792023011e-07,2.22734042833e-07,1.75118931471e-06
23472000000,1460,23472000000,world,-4.07949943206e-06,3.22661168326e-09,-2.36806565795e-06,8.95158984225e-07,4.55012943497e-07,2.25063587611e-06
23488000000,1461,23488000000,world,0.000103129549435,-8.42921636007e-08,5.96683404679e-05,9.19519597502e-07,1.8263345763e-05,2.51518472244e-06
23504000000,1462,23504000000,world,-5.17223061568e-06,9.37866779342e-09,-2.91027857205e-06,1.14841757239e-06,6.75305363926e-07,2.82760291644e-06
23520000000,1463,23520000000,world,0.000102785556877,-1.99293247642e-07,5.76189102695e-05,1.1912416515e-06,1.88397979617e-05,3.01187619115e-06
23536000000,1464,23536000000,world,-6.44225865114e-06,7.38858112959e-09,-3.54945859672e-06,1.37958947324e-06,8.95178271729e-07,3.28830697612e-06
23552000000,1465,23552000000,world,0.000101967118377,-1.22146319818e-07,5.59457273073e-05,1.45281762165e-06,1.93059655398e-05,3.58836242127e-06
23568000000,1466,23568000000,world,-7.90673509426e-06,1.39186299538e-08,-4.29636459259e-06,1.71040165607e-06,1.13310748796e-06,3.99555836691e-06
23584000000,1467,23584000000,world,-7.90673509407e-06,1.39186301652e-08,-4.29636459273e-06,1.71040165607e-06,1.13310748796e-06,3.99555836691e-06
23600000000,1468,23600000000,world,-9.57892133001e-06,1.92607596416e-08,-5.1601433961e-06,2.06805141054e-06,1.38981950907e-06,4.76213018364e-06
23616000000,1469,23616000000,world,-9.57892133001e-06,1.92607596416e-08,-5.1601433961e-06,2.06805141054e-06,1.38981950907e-06,4.76213018364e-06
23632000000,1470,23632000000,world,-1.14760946356e-05,1.97704666518e-08,-6.15041885495e-06,2.44208971965e-06,1.67729743524e-06,5.57822302943e-06
23648000000,1471,23648000000,world,-1.14760946356e-05,1.97704666518e-08,-6.15041885495e-06,2.44208971965e-06,1.67729743524e-06,5.57822302943e-06
23664000000,1472,23664000000,world,-1.36768076939e-05,2.75127496469e-08,-7.30835909666e-06,2.94193301062e-06,2.00611960894e-06,6.76614942979e-06
23680000000,1473,23680000000,world,9.50605274191e-05,-2.03796660943e-07,5.04831980365e-05,3.12751258853e-06,2.08215387036e-05,7.30155533704e-06
23696000000,1474,23696000000,world,-1.60710403792e-05,3.03428765806e-08,-8.57748510313e-06,3.44410179606e-06,2.36432469729e-06,7.95236236735e-06
23712000000,1475,23712000000,world,-1.60710403792e-05,3.03428765806e-08,-8.57748510313e-06,3.44410179606e-06,2.36432469729e-06,7.95236236735e-06
23728000000,1476,23728000000,world,-1.87381069007e-05,3.29780085265e-08,-9.99828259519e-06,4.00265195931e-06,2.76009453132e-06,9.28550179793e-06
23744000000,1477,23744000000,world,8.97719205277e-05,-1.65803451107e-07,4.75448813988e-05,4.25462333411e-06,2.16393545646e-05,1.00002683193e-05
23760000000,1478,23760000000,world,-2.16958513439e-05,4.19934951715e-08,-1.15786501004e-05,4.65789957909e-06,3.20144572003e-06,1.08519255613e-05
23776000000,1479,23776000000,world,8.66677735013e-05,-1.82387843518e-07,4.58745802644e-05,4.92782129896e-06,2.21027322842e-05,1.15937650077e-05
23792000000,1480,23792000000,world,-2.49602342258e-05,4.41900684358e-08,-1.33239350998e-05,5.32864004676e-06,3.68661634144e-06,1.24373187961e-05
23808000000,1481,23808000000,world,8.32473680638e-05,-1.58553375321e-07,4.40364311827e-05,5.64102617918e-06,2.26141815668e-05,1.32845443571e-05
23824000000,1482,23824000000,world,-2.85493596628e-05,5.55180993854e-08,-1.52397607856e-05,6.11394753929e-06,4.21947775282e-06,1.42810337163e-05
23840000000,1483,23840000000,world,7.95010011915e-05,-1.69544747344e-07,4.20115647245e-05,6.45886098814e-06,2.31762465122e-05,1.51715556834e-05
23856000000,1484,23856000000,world,-3.24810805964e-05,6.46357483862e-08,-1.73294004415e-05,6.94856858141e-06,4.79915215562e-06,1.61779639329e-05
23872000000,1485,23872000000,world,-3.24810805964e-05,6.46357483862e-08,-1.73294004415e-05,6.94856858141e-06,4.79915215562e-06,1.61779639329e-05
23888000000,1486,23888000000,world,-3.67759617298e-05,7.51542373477e-08,-1.95941873857e-05,7.82904225412e-06,5.4289191135e-06,1.81830994803e-05
23904000000,1487,23904000000,world,7.09831459217e-05,-1.5510367834e-07,3.73379146354e-05,8.27589722636e-06,2.44682854868e-05,1.93081441824e-05
23920000000,1488,23920000000,world,-4.14551717543e-05,8.6872671363e-08,-2.20322756065e-05,8.85214093418e-06,6.10797314434e-06,2.05555940165e-05
23936000000,1489,23936000000,world,6.61842641667e-05,-1.58694869731e-07,3.46617798562e-05,9.31339867219e-06,2.52086914804e-05,2.16905241819e-05
23952000000,1490,23952000000,world,-4.65417734413e-05,1.03648364427e-07,-2.46372402392e-05,9.9167081534e-06,6.83470257463e-06,2.29652011385e-05
23968000000,1491,23968000000,world,6.10068274063e-05,-1.61632340072e-07,3.17456668077e-05,1.04103598151e-05,2.60127227751e-05,2.41450862999e-05
23984000000,1492,23984000000,world,6.10068274063e-05,-1.61632340072e-07,3.17456668077e-05,1.04103598151e-05,2.60127227751e-05,2.41450862999e-05
24000000000,1493,24000000000,world,5.54348779712e-05,-1.46885269715e-07,2.85802475274e-05,1.16276325605e-05,2.68856942419e-05,2.69804901379e-05
24016000000,1494,24016000000,world,-5.80512480729e-05,1.46715720227e-07,-3.02798475484e-05,1.23244621382e-05,8.41985055058e-06,2.85718740086e-05
24032000000,1495,24032000000,world,4.94522689433e-05,-1.4987526438e-07,2.51589905162e-05,1.29343683409e-05,2.78307133231e-05,3.00395864123e-05
24048000000,1496,24048000000,world,-6.4545763043e-05,1.8034800504e-07,-3.3245558408e-05,1.3657506471e-05,9.26327007281e-06,3.16656091227e-05
24064000000,1497,24064000000,world,-6.4545763043e-05,1.8034800504e-07,-3.3245558408e-05,1.3657506471e-05,9.26327007281e-06,3.16656091227e-05
24080000000,1498,24080000000,world,-7.16031251153e-05,2.34270648978e-07,-3.6208153018e-05,1.50570833787e-05,1.01196736303e-05,3.49334155836e-05
24096000000,1499,24096000000,world,3.61927531828e-05,-1.43544894436e-07,1.75406195082e-05,1.58181575902e-05,2.99352969082e-05,3.66991461837e-05
24112000000,1500,24112000000,world,-7.93136178274e-05,2.95265074989e-07,-3.90092356059e-05,1.66293958719e-05,1.09571991607e-05,3.86642719785e-05
24128000000,1501,24128000000,world,2.887404798e-05,-1.44725428048e-07,1.33491671476e-05,1.74289897874e-05,3.10989458218e-05,4.04547350098e-05
24144000000,1502,24144000000,world,-8.78346356578e-05,4.11143142659e-07,-4.13084286801e-05,1.82473773096e-05,1.17037337088e-05,4.24557998618e-05
24160000000,1503,24160000000,world,-8.78346356578e-05,4.11143142659e-07,-4.13084286801e-05,1.82473773096e-05,1.17037337088e-05,4.24557998618e-05
24176000000,1504,24176000000,world,-9.75074159449e-05,6.46840723488e-07,-4.22276993741e-05,1.99239321854e-05,1.21846571122e-05,4.64080281702e-05
24192000000,1505,24192000000,world,1.27395572171e-05,-1.35502953466e-07,4.33496526796e-06,2.0925114181e-05,3.36241716372e-05,4.83523938622e-05
24208000000,1506,24208000000,world,-0.000109316934256,1.10947492682e-06,-3.85210647869e-05,2.16814765213e-05,1.18100234788e-05,5.07361712076e-05
24224000000,1507,24224000000,world,3.86505062851e-06,-1.12733880419e-07,-2.2598541204e-07,2.28401418656e-05,3.49540491308e-05,5.27404323969e-05
24240000000,1508,24240000000,world,-0.000124969799923,3.50380946558e-06,4.24195171634e-06,2.30337122457e-05,-2.12094670767e-06,5.56259432562e-05
24256000000,1509,24256000000,world,-4.8337498701e-06,-1.84256791352e-08,-3.54153696949e-06,2.48374666046e-05,4.50110372719e-05,5.74176141558e-05
24272000000,1510,24272000000,world,9.08264746751e-05,3.47730504167e-07,6.68492719405e-05,2.57191628353e-05,5.18730338367e-05,5.99707365168e-05
24288000000,1511,24288000000,world,-1.42424065453e-05,-4.76673421089e-08,-1.01317803445e-05,2.70682385434e-05,3.81062996086e-05,6.25199427836e-05
24304000000,1512,24304000000,world,8.22701026753e-05,2.61607045913e-07,5.84996256993e-05,2.79738765089e-05,5.36434550289e-05,6.5149189413e-05
24304000000,1513,24320000000,world,-2.41548413298e-05,-8.84664086359e-08,-1.72069259254e-05,2.93085387873e-05,4.90187507964e-05,6.7749651654e-05
24336000000,1514,24336000000,world,7.19158495171e-05,2.60535864247e-07,5.15015424576e-05,3.03126962837e-05,5.43826483565e-05,7.06222578116e-05
24336000000,1515,24352000000,world,-3.46532521386e-05,-1.21241467267e-07,-2.45559244569e-05,3.17782400509e-05,4.0682862231e-05,7.34863692501e-05
24368000000,1516,24368000000,world,-3.46532521386e-05,-1.21241467267e-07,-2.45559244569e-05,3.17782400509e-05,4.0682862231e-05,7.34863692501e-05
24384000000,1517,24384000000,world,-4.5793505681e-05,-1.54435904286e-07,-3.22350964715e-05,3.4330778901e-05,4.34341719626e-05,7.93836479321e-05
24400000000,1518,24400000000,world,5.02281430208e-05,1.55262842514e-07,3.53013874396e-05,3.54174295783e-05,5.93988114696e-05,8.24171900441e-05
24416000000,1519,24416000000,world,-5.75581492622e-05,-1.78976205917e-07,-4.02682136102e-05,3.69727971865e-05,4.59620626743e-05,8.5477300987e-05
24432000000,1520,24432000000,world,3.83732431879e-05,1.10438497879e-07,2.67632944853e-05,3.81430409936e-05,6.22435801881e-05,8.87171765506e-05
24448000000,1521,24448000000,world,-6.99788893851e-05,-1.94215588581e-07,-4.86409563587e-05,3.97856999512e-05,4.84039324505e-05,9.20285781929e-05
24464000000,1522,24464000000,world,2.58648720921e-05,6.59354470838e-08,1.78646675516e-05,4.10482553991e-05,6.49853142656e-05,9.54513159306e-05
24480000000,1523,24480000000,world,-8.31247430206e-05,-2.16329119098e-07,-5.72828014019e-05,4.27236219231e-05,5.08180149044e-05,9.88315710339e-05
24496000000,1524,24496000000,world,-8.31247430206e-05,-2.16329119098e-07,-5.72828014019e-05,4.27236219231e-05,5.08180149044e-05,9.88315710339e-05
24512000000,1525,24512000000,world,-9.72776831426e-05,-1.71122508125e-07,-6.58061066034e-05,4.57797628686e-05,5.31495739531e-05,0.00010581894938
24528000000,1526,24528000000,world,-1.17482477872e-06,-2.19865453196e-08,-1.03966581116e-06,4.71949442568e-05,7.02707638726e-05,0.000109380540512
24544000000,1527,24544000000,world,8.48133509977e-05,1.6938822941e-06,7.64113453295e-05,4.82751608113e-05,8.06367058737e-05,0.000113316869738
24560000000,1528,24560000000,world,-1.48617877595e-05,-1.78960480856e-07,-1.21164183667e-05,5.05118447116e-05,8.3247480457e-05,0.000116873374225
24576000000,1529,24576000000,world,7.39683754057e-05,9.53776229908e-07,6.14357515435e-05,5.18277365413e-05,8.65462866796e-05,0.000121036663768
24592000000,1530,24592000000,world,-2.94809505042e-05,-3.0598559687e-07,-2.32921624268e-05,5.40153287775e-05,7.52851581443e-05,0.00012499130429
24608000000,1531,24608000000,world,6.03181592088e-05,6.87592181034e-07,4.83464054987e-05,5.54654941494e-05,8.877414174e-05,0.000129442736358
24624000000,1532,24624000000,world,-4.48260927304e-05,-4.49817644756e-07,-3.4982201282e-05,5.76919742082e-05,7.92500005061e-05,0.00013357005478
24640000000,1533,24640000000,world,4.50913986483e-05,4.96350791207e-07,3.5823305914e-05,5.91945853814e-05,9.33176569794e-05,0.000138035377285
24656000000,1534,24656000000,world,-6.06348212202e-05,-6.08337137271e-07,-4.75055683133e-05,6.14996816154e-05,9.26838239994e-05,0.000142264433226
24672000000,1535,24672000000,world,2.8660156174e-05,3.33666547684e-07,2.34440560014e-05,6.31099703461e-05,9.64717164937e-05,0.000146857273388
24688000000,1536,24688000000,world,-7.6437444605e-05,-8.26643592029e-07,-6.12980414719e-05,6.55188126758e-05,8.52823957674e-05,0.000151250943447
24704000000,1537,24704000000,world,1.17282553135e-05,1.83491350726e-07,1.03115583058e-05,6.71923235289e-05,9.86384669169e-05,0.000156106097738
24720000000,1538,24720000000,world,-9.0836941555e-05,-1.31463450975e-06,-7.81076050835e-05,6.97839640695e-05,9.09526945374e-05,0.000160731027307
24736000000,1539,24736000000,world,-5.78424912317e-06,1.15538984755e-08,-3.46229938973e-06,7.14699934561e-05,0.000102688393424,0.000165893475796
24752000000,1540,24752000000,world,9.1588606712e-05,-2.40818574202e-07,5.37402464064e-05,7.35988011401e-05,0.000124034652224,0.000170928760997
24768000000,1541,24768000000,world,-2.53992935998e-05,1.41762981504e-08,-1.59832130304e-05,7.58984206142e-05,0.000116162543227,0.000176171532229
24784000000,1542,24784000000,world,-2.53992935998e-05,1.41762981504e-08,-1.59832130304e-05,7.58984206142e-05,0.000116162543227,0.000176171532229
24800000000,1543,24800000000,world,-4.57991694027e-05,6.19930766279e-09,-2.9039354671e-05,8.04447031077e-05,0.000111777453517,0.000186525587667
24816000000,1544,24816000000,world,4.90911939315e-05,-5.21930986759e-08,3.03925957449e-05,8.26922910458e-05,0.00013049165194,0.000191774237242
24832000000,1545,24832000000,world,-6.72409375933e-05,1.77459557771e-08,-4.22485712405e-05,8.51865168137e-05,0.000115677384132,0.000197133849198
24848000000,1546,24848000000,world,2.75233241689e-05,-6.59111638212e-08,1.64762658127e-05,8.74984837924e-05,0.000134513580783,0.000202513555497
24864000000,1547,24864000000,world,-9.01813329352e-05,1.44650621802e-07,-5.48548420931e-05,9.00463593496e-05,0.000119317674675,0.000208124405745
24880000000,1548,24880000000,world,5.12613070836e-06,-7.6983313423e-08,2.05421661177e-06,9.25098471868e-05,0.00013858506602,0.000213838466152
24896000000,1549,24896000000,world,5.12613070836e-06,-7.6983313423e-08,2.05421661177e-06,9.25098471868e-05,0.00013858506602,0.000213838466152
24912000000,1550,24912000000,world,-0.000121747050244,1.62425176816e-06,-5.19291643271e-05,9.4814752793e-05,0.000119404523725,0.000220098195286
24928000000,1551,24928000000,world,7.65245810728e-05,-2.42392483588e-07,4.44295386099e-05,0.000100346958,0.000161996652178,0.000232104790773
24944000000,1552,24944000000,world,7.65245810728e-05,-2.42392483588e-07,4.44295386099e-05,0.000100346958,0.000161996652178,0.000232104790773
24960000000,1553,24960000000,world,5.11966050407e-05,-1.45053029174e-07,2.99702825678e-05,0.000105851366535,0.000166001779014,0.000245000789003
24976000000,1554,24976000000,world,-6.86062244791e-05,1.15186593078e-07,-4.13289042722e-05,0.000108749650826,0.000150749134241,0.000251580274751
24992000000,1555,24992000000,world,2.5489947489e-05,-1.25589256466e-07,1.40959069393e-05,0.000111545074326,0.000170354314556,0.000258077547903
